Unique_id,Station_Name,Street_Address,City,States,Zip_Code,Groups_With_Access_Code,Access_Days_Time,Geocode_Status,Latitude,Longitude,Date_Last_Confirmed,Updated_At,Open_Date
102483,"Aberdeen, WA - Tesla Supercharger",416 Wishkah Street,Aberdeen,WA,98520,Public,24 hours daily; for Tesla use only,GPS,46.976679,-123.813485,2021-10-11,2021-11-04 18:37:47 UTC,2017-01-15
191770,"Walmart 2037 (Aberdeen, WA)",909 E Wishkah St,Aberdeen,WA,98520,Public,24 hours daily,GPS,46.976416,-123.807081,2022-07-25,2022-07-25 01:36:20 UTC,2021-07-03
155375,STCU Airway Heights,10811 US-2,Airway Heights,WA,99001,Public,24 hours daily,GPS,47.642243,-117.561147,2020-05-06,2021-12-02 18:49:53 UTC,2020-04-10
147673,"Walgreens - Anacortes, WA #7131",909 17th Street,Anacortes,WA,98221,Public,MO: Not Specified; TU: Not Specified; WE: Not Specified; TH: Not Specified; FR: Not Specified; SA: Not Specified; SU: Not Specified,GPS,48.508154,-122.611842,2022-07-25,2022-07-25 00:31:01 UTC,2012-03-01
147675,Island Hospital Behind M.O.B. Building,1211 24th Street,Anacortes,WA,98221,Public,MO: Not Specified; TU: Not Specified; WE: Not Specified; TH: Not Specified; FR: Not Specified; SA: Not Specified; SU: Not Specified,GPS,48.5006578,-122.6159562,2022-07-25,2022-07-25 00:31:01 UTC,2015-07-14
150675,Majestic Inn & Spa - Tesla Destination,419 Commercial Ave,Anacortes,WA,98221,Public,24 hours daily; for customer use only; see front desk for access,200-9,48.51854,-122.612146,2020-11-03,2021-03-11 23:22:17 UTC,2019-09-30
158636,Anacortes Public Parking,559 Q Ave,Anacortes,WA,98221,Public,24 hours daily,GPS,48.517768,-122.610743,2020-07-13,2022-07-18 04:23:31 UTC,2020-06-05
185648,SAMISH NATION CANNERY SOUTH 1,715 Seafarers Way,Anacortes,WA,98221,Public,24 hours daily,GPS,48.51004,-122.608116,2022-07-25,2022-07-25 01:17:07 UTC,2021-03-06
185649,SAMISH NATION CANNERY SOUTH 2,715 Seafarers Way,Anacortes,WA,98221,Public,24 hours daily,GPS,48.510044,-122.608185,2022-07-25,2022-07-25 01:17:07 UTC,2021-03-06
194585,Safeway 911 11thSt,911 11th St,Anacortes,WA,98221,Public - Credit card at all times,24 hours daily,GPS,48.5127157,-122.6117844,2022-05-05,2022-05-05 20:22:04 UTC,2021-08-26
195114,1203 Parking Lot,1203 26th Street,Anacortes,WA,98221,Public,MO: 12:00am-12:00am; TU: 12:00am-12:00am; WE: 12:00am-12:00am; TH: 12:00am-12:00am; FR: 12:00am-12:00am; SA: 12:00am-12:00am; SU: 12:00am-12:00am,GPS,48.5012896,-122.6152529,2022-07-25,2022-07-25 00:31:01 UTC,2021-09-05
211746,ANACORTESEV N CH WEST EV1,5TH Q Ave,Anacortes,WA,98221,Public,24 hours daily,GPS,48.518102,-122.611203,2022-07-25,2022-07-25 01:26:26 UTC,2022-03-15
211747,ANACORTESEV N CH WEST EV#2,5TH Q Ave,Anacortes,WA,98221,Public,24 hours daily,GPS,48.518179,-122.611202,2022-07-25,2022-07-25 01:26:26 UTC,2022-03-15
212998,ANACORTESEV LIBRARY EV,M Ave. and 9th near Library,Anacortes,WA,98221,Public,24 hours daily,GPS,48.514381,-122.616919,2022-07-25,2022-07-25 01:26:44 UTC,2022-03-27
213018,ANACORTESEV E CH PARKING #3,6 Q Ave,Anacortes,WA,98221,Public,24 hours daily,GPS,48.517744,-122.610748,2022-07-25,2022-07-25 01:26:45 UTC,2022-03-29
213976,LEVEL II CHARGE LEVEL II CHARGE,1014 18th St,Anacortes,WA,98221,Public,24 hours daily,GPS,48.507864,-122.613612,2022-07-25,2022-07-25 01:27:01 UTC,2022-04-14
88777,PARK77 PARK77 C,20227 77th Ave NE,Arlington,WA,98223,Public,24 hours daily,GPS,48.180175,-122.12563,2022-07-25,2022-07-25 00:54:28 UTC,2017-12-12
102484,Angel of the Winds Casino - Tesla Supercharger,3438 Stoluckquamish Lane,Arlington,WA,98223,Public,24 hours daily; for Tesla use only,GPS,48.212441,-122.183491,2021-10-11,2021-11-04 18:37:47 UTC,2017-03-01
116073,Angel of the Winds Casino - Tesla Destination,3438 Stoluckquamish Ln,Arlington,WA,98223,Public,24 hours daily; for customer use only,200-9,48.214506,-122.185718,2020-11-03,2021-03-11 23:22:17 UTC,2017-03-01
170586,Stillaguamish Conference Room,154 W Cox St,Arlington,WA,98223,Public,24 hours daily,GPS,48.201607,-122.128261,2021-01-14,2021-08-04 00:01:52 UTC,2020-12-21
172886,PARK77 PARK77 M,20227 77th Ave NE,Arlington,WA,98223,Public,24 hours daily,GPS,48.180018,-122.125407,2022-07-25,2022-07-25 00:54:28 UTC,2021-01-27
172887,PARK77 PARK77 LEASING,20227 77th Ave NE,Arlington,WA,98223,Public,24 hours daily,GPS,48.179818,-122.12624,2022-07-25,2022-07-25 00:54:28 UTC,2021-01-27
172888,PARK77 PARK77 P,20227 77th Ave NE,Arlington,WA,98223,Public,24 hours daily,GPS,48.180025,-122.125396,2022-07-25,2022-07-25 00:54:28 UTC,2021-01-27
187460,NAVRADSTA Jim Creek,Jim Creek Rd,Arlington,WA,98223,Private,Private,GPS,48.219247,-121.942976,2022-07-12,2022-07-12 20:31:42 UTC,2021-01-15
214712,Safeway,3532 172nd St NE,Arlington,WA,98223,Public - Credit card at all times,7am-1am daily,GPS,48.15179061,-122.1817994,2022-05-05,2022-05-05 20:22:04 UTC,2022-04-15
221110,Safeway,20500 Olympic Pl,Arlington,WA,98223,Public - Credit card at all times,9am-3am daily,GPS,48.18210848,-122.127874,2022-06-14,2022-06-14 16:24:51 UTC,2022-06-07
61948,Mount Rainier National Park,55210 238th Ave E,Ashford,WA,98304,Private,Private,200-8,46.755816,-122.120894,2021-02-22,2021-03-11 23:22:17 UTC,2019-07-15
98666,National Park Service - Longmire Administration Building,47015 Paradise Rd E,Ashford,WA,98304,Private,Fleet and employee use only,GPS,46.750241,-121.812778,2021-02-22,2021-03-11 23:22:17 UTC,2018-04-01
116074,Alexander's Lodge & Restaurant - Tesla Destination,37515 SR 706 E,Ashford,WA,98304,Public,24 hours daily; for customer use only; see front desk for access,200-9,46.751481,-121.93684,2020-11-03,2021-03-11 23:22:17 UTC,2016-04-01
39776,Rairdon's Nissan - Auburn,713 35th St NE,Auburn,WA,98002,Private,Service center only,200-9,47.338754,-122.221114,2020-06-09,2021-03-11 23:22:17 UTC,2011-03-15
50277,Waste Management - South Sound,701 2nd St NW,Auburn,WA,98001,Private,Private,200-9,47.310348,-122.23753,2022-06-14,2022-06-14 16:22:47 UTC,2015-07-15
67572,U-Haul,5110 Frontage Rd NW,Auburn,WA,98001,Public,"7am-7pm M-Th and Sat, 7am-8pm F, 9am-5pm Sun",200-9,47.352711,-122.241261,2021-06-07,2022-02-22 14:31:10 UTC,2015-06-01
147788,Auburn Corporate Center I,1102 15th Street Southwest,Auburn,WA,98001,Public,MO: 04:00am-11:00pm; TU: 04:00am-11:00pm; WE: 04:00am-11:00pm; TH: 04:00am-11:00pm; FR: 04:00am-11:00pm; SA: 12:00am-12:00am; SU: 12:00am-12:00am,GPS,47.2944668,-122.2458311,2022-07-25,2022-07-25 00:31:01 UTC,2017-09-13
147790,Four Lakes Apartments,6821 Udall Place Southeast,Auburn,WA,98092,Public,MO: 12:00am-12:00am; TU: 12:00am-12:00am; WE: 12:00am-12:00am; TH: 12:00am-12:00am; FR: 12:00am-12:00am; SA: 12:00am-12:00am; SU: 12:00am-12:00am,GPS,47.24745539,-122.200549,2022-07-25,2022-07-25 00:31:01 UTC,2018-03-07
150184,The Outlet Collection - Tesla Supercharger,1101 Outlet Collection Way,Auburn,WA,98001,Public,24 hours daily; for Tesla use only,GPS,47.29799,-122.248532,2021-10-11,2021-11-04 18:37:47 UTC,2019-10-19
151834,Walgreens #7594,1416 Harvey Rd,Auburn,WA,98002,Public,8am-10pm daily,GPS,47.320611,-122.220406,2022-05-05,2022-05-05 20:22:04 UTC,2019-10-16
151835,Walgreens #7480,1701 Auburn Way St,Auburn,WA,98002,Public,8am-12am daily,GPS,47.293477,-122.212944,2022-05-05,2022-05-05 20:22:04 UTC,2019-10-16
154101,HINSHAWSHONDA SHOP 01,2605 Auburn Way N,Auburn,WA,98002,Public,24 hours daily,GPS,47.330144,-122.22253,2022-07-25,2022-07-25 01:01:25 UTC,2020-02-27
166714,TheOutlet Collection Seattle,1101 Outlet Collection Way,Auburn,WA,98001,Public,6am-12am daily,GPS,47.299413,-122.24255,2022-05-05,2022-05-05 20:22:04 UTC,2020-08-31
166715,TheOutlet Collection Seattle,1101 Outlet Collection Way,Auburn,WA,98001,Public,6am-12am daily,GPS,47.297911,-122.247622,2022-05-05,2022-05-05 20:22:04 UTC,2020-08-31
170032,AUBURN CENTER GREEN RIVER #1,1221 D St. NE,Auburn,WA,98002,Public,24 hours daily,GPS,47.318711,-122.225391,2022-07-25,2022-07-25 00:47:40 UTC,2020-12-10
187723,Safeway #448,4010 A St SE,Auburn,WA,98002,Public,6am-12am daily,GPS,47.272946,-122.227594,2022-05-05,2022-05-05 20:22:04 UTC,2021-04-12
189391,"The Outlet Collection ( Auburn, WA)",1101 Outlet Collection Way,Auburn,WA,98001,Public,24 hours daily,GPS,47.297707,-122.249112,2022-07-25,2022-07-25 01:36:07 UTC,2021-05-08
192889,Pillar Properties - The Verge,109 S Division St,Auburn,WA,98001,Private,MON: 24 hours | TUE: 24 hours | WED: 24 hours | THU: 24 hours | FRI: 24 hours | SAT: 24 hours | SUN: 24 hours,GPS,47.3064421,-122.229972,2022-07-24,2022-07-24 22:55:19 UTC,2021-07-15
195128,Muckleshoot Casino,2402 Auburn Way,Auburn,WA,98002,Public,MO: Not Specified; TU: Not Specified; WE: Not Specified; TH: Not Specified; FR: Not Specified; SA: Not Specified; SU: Not Specified,GPS,47.2909636,-122.1953885,2022-07-25,2022-07-25 00:31:01 UTC,2021-09-05
195248,"White River Property, LLC.","4111 ""A"" Street SE",Auburn,WA,98002,Public,MO: 05:00am-12:00am; TU: 05:00am-12:00am; WE: 05:00am-12:00am; TH: 05:00am-12:00am; FR: 05:00am-12:00am; SA: 05:00am-12:00am; SU: 05:00am-12:00am,GPS,47.2768641,-122.2134697,2022-07-25,2022-07-25 00:31:01 UTC,2021-09-05
211714,Meadows on Lea Hill,12505 SE 312th St,Auburn,WA,98092,Public,MON: 24 hours | TUE: 24 hours | WED: 24 hours | THU: 24 hours | FRI: 24 hours | SAT: 24 hours | SUN: 24 hours,GPS,47.322103,-122.173962,2022-07-24,2022-07-24 22:55:19 UTC,2022-03-14
223484,Green River,1103 Ninth Street SE,Auburn,WA,98002,Public,MON: 24 hours | TUE: 24 hours | WED: 24 hours | THU: 24 hours | FRI: 24 hours | SAT: 24 hours | SUN: 24 hours,GPS,47.2999,-122.2135,2022-07-24,2022-07-24 22:55:19 UTC,2022-07-14
212288,Amazon Fresh Seattle-Aurora,13025 Aurora Ave N,Aurora,WA,98133,Public,6am-12am daily,GPS,47.725382,-122.346419,2022-04-06,2022-04-06 14:08:04 UTC,2022-03-08
66696,WINSLOW WAY WINSLOW #1,232-240 Winslow Way E,Bainbridge Island,WA,98110,Public,24 hours daily,GPS,47.624921,-122.51934,2022-07-25,2022-07-25 00:43:46 UTC,2015-04-11
69209,CHARGEPOINT T&C BAINBRIDGE,343 Winslow Way E,Bainbridge Island,WA,98110,Public,24 hours daily,GPS,47.62419,-122.517509,2022-07-25,2022-07-25 00:43:16 UTC,2015-08-27
96877,VM CHARGERS VM BAINBRIDGE 1,1329 Wintergreen Lane Northeast,Bainbridge Island,WA,98110,Public,24 hours daily,GPS,47.637692,-122.513582,2022-07-25,2022-07-25 00:56:30 UTC,2018-05-02
163737,CIBO POINT WHITE DR,4569 Point White Dr. NE,Bainbridge Island,WA,98110,Public,24 hours daily,GPS,47.605226,-122.548468,2022-07-25,2022-07-25 01:09:46 UTC,2020-07-01
212021,"Walgreens - Bainbridge Island, WA #15673",1315 Wintergreen Lane NE,Bainbridge Island,WA,98110,Public,MO: 12:00am-12:00am; TU: 12:00am-12:00am; WE: 12:00am-12:00am; TH: 12:00am-12:00am; FR: 12:00am-12:00am; SA: 12:00am-12:00am; SU: 12:00am-12:00am,GPS,47.6357914,-122.5148321,2022-07-25,2022-07-25 00:31:01 UTC,2022-03-19
20702,U-Haul,1119 NW Leary Way,Ballard,WA,98107,Public,"7am-7pm M-Th and Sat, 7am-8pm F, 9am-5pm Sun",GPS,47.6634224,-122.3738053,2021-06-07,2022-02-22 14:31:10 UTC,2000-11-01
201852,Belfair Log Plaza,23730 WA-3,Belfair,WA,98528,Public,MON: 24 hours | TUE: 24 hours | WED: 24 hours | THU: 24 hours | FRI: 24 hours | SAT: 24 hours | SUN: 24 hours,GPS,47.451373,-122.826865,2022-07-24,2022-07-24 22:55:19 UTC,2021-12-01
212576,Safeway 23961 N.e. State Route 3,23961 N.e. State Route 3,Belfair,WA,98528,Public,6am-12am daily,GPS,47.454053,-122.823114,2022-04-06,2022-04-06 14:08:04 UTC,2022-03-25
37181,BELLEVUE BELLEVUE CH 1,450 110th Ave NE,Bellevue,WA,98004,Public,24 hours daily,GPS,47.614744,-122.193162,2022-07-25,2022-07-25 00:56:42 UTC,2010-12-15
40383,KEY CENTER KEY CENTER 6,601 108th Ave NE,Bellevue,WA,98004,Public,24 hours daily,GPS,47.616104,-122.19696,2022-07-25,2022-07-25 01:08:06 UTC,2011-05-15
40384,KRC SKYLINE SKYLINE #1,10900 NE 4th St,Bellevue,WA,98004,Public,24 hours daily,GPS,47.61434,-122.194037,2022-07-25,2022-07-25 01:03:18 UTC,2011-05-15
42228,BELLEVUE SBCC #2,14509 SE Newport Way,Bellevue,WA,98006,Public,24 hours daily,GPS,47.568871,-122.145285,2022-07-25,2022-07-25 01:08:52 UTC,2011-11-15
46342,Clean Energy - Republic Services,1600 127th Ave NE,Bellevue,WA,98005,Private,Private,200-9,47.625387,-122.170404,2021-11-04,2022-02-10 19:42:29 UTC,2011-06-01
49759,City of Bellevue - Bellevue Service Center,2901 115th Ave NE,Bellevue,WA,98004,Private,Fleet vehicles and employee use only,GPS,47.63811493,-122.1882,2021-02-15,2021-11-12 18:20:06 UTC,2012-10-15
60241,PARKMETRO1 PARK METRO #1,11101 NE 12th St,Bellevue,WA,98004,Public,24 hours daily,GPS,47.620793,-122.192469,2022-07-25,2022-07-25 00:41:35 UTC,2014-02-07
62654,UDR ASHTON BELL #2,10710 NE 10th St,Bellevue,WA,98004,Public,24 hours daily,GPS,47.619772,-122.197194,2022-07-25,2022-07-25 00:42:16 UTC,2014-07-30
62728,UDR TEN20 #1,10710 Northeast 10th Street,Bellevue,WA,98004,Public,24 hours daily,GPS,47.61984,-122.19603,2022-07-25,2022-07-25 00:42:07 UTC,2014-07-31
63110,UWMC UWMC #1,3100 Northup Way,Bellevue,WA,98004,Public,24 hours daily,GPS,47.638269,-122.191294,2022-07-25,2022-07-25 00:41:55 UTC,2014-08-28
66594,HAMPTON INN WEST BACK,11505 NE 2nd Pl,Bellevue,WA,98004,Public,24 hours daily,GPS,47.611711,-122.187292,2022-07-25,2022-07-25 00:44:47 UTC,2015-04-02
71918,ESSEX SAMMAMISH VIEW,16160 SE Eastgate Way,Bellevue,WA,98008,Public,24 hours daily,GPS,47.577051,-122.125164,2022-07-25,2022-07-25 00:46:33 UTC,2015-12-18
81023,LINC SQUARE EXP LSE P2 #2,432-492 Bellevue Way NE,Bellevue,WA,98004,Public,24 hours daily,GPS,47.614294,-122.201255,2022-07-25,2022-07-25 00:48:21 UTC,2017-01-27
81024,LINC SQUARE EXP P5 1,410 Bellevue Way NE,Bellevue,WA,98004,Public,24 hours daily,GPS,47.614098,-122.200729,2022-07-25,2022-07-25 00:55:26 UTC,2017-01-27
82346,THE SUMMIT THE SUMMIT - P2,10885 NE 4th St,Bellevue,WA,98004,Public,24 hours daily,GPS,47.613367,-122.194775,2022-07-25,2022-07-25 00:51:28 UTC,2017-04-20
82499,ESSEX BELLCENTERE 01,10822 NE 2nd Pl,Bellevue,WA,98004,Public,24 hours daily,GPS,47.612468,-122.194308,2022-07-25,2022-07-25 00:51:30 UTC,2017-05-05
85540,BELLEVUE DOWNTOWN PARK 2,10201 NE 4th St,Bellevue,WA,98004,Public,24 hours daily,GPS,47.61309,-122.206569,2022-07-25,2022-07-25 00:51:47 UTC,2017-06-14
86025,Bellevue Nissan,14762 SE Eastgate Way,Bellevue,WA,98007,Public - Call ahead,Dealership business hours,200-9,47.580655,-122.143364,2022-03-07,2022-03-07 19:49:53 UTC,2017-03-01
86962,E_SOFI SOFI #1,13180 SE Newport Way,Bellevue,WA,98006,Public,24 hours daily,GPS,47.571386,-122.164808,2022-07-25,2022-07-25 00:49:50 UTC,2017-08-30
87711,BELLEVUE SQUARE BELL SQ NORTH 1,Bellevue Square - North Building104th Ave NE,Bellevue,WA,98004,Public,24 hours daily,GPS,47.616971,-122.203009,2022-07-25,2022-07-25 00:53:01 UTC,2017-09-21
88290,CAR CHARGER #1 SOMA DUAL 1,288 106th Ave NE,Bellevue,WA,98004,Public,24 hours daily,GPS,47.612754,-122.198497,2022-07-25,2022-07-25 00:53:21 UTC,2017-11-03
92251,FACTORIA EV KAMBER ROAD,13545 SE 26th St,Bellevue,WA,98005,Public,24 hours daily,GPS,47.587,-122.159356,2022-07-25,2022-07-25 00:55:38 UTC,2018-03-07
95496,Bellevue College - Garage,3000 Landerholm Cir SE,Bellevue,WA,98007,Public,MON: 24 hours | TUE: 24 hours | WED: 24 hours | THU: 24 hours | FRI: 24 hours | SAT: 24 hours | SUN: 24 hours,GPS,47.585655,-122.147284,2022-07-24,2022-07-24 22:55:19 UTC,2015-03-21
95951,The Bravern,11111 NE 8th St,Bellevue,WA,98004,Public,MON: 24 hours | TUE: 24 hours | WED: 24 hours | THU: 24 hours | FRI: 24 hours | SAT: 24 hours | SUN: 24 hours,GPS,47.6172869,-122.1919353,2022-07-24,2022-07-24 22:55:19 UTC,2012-07-15
96076,112th & 12th,1100 112th Ave NE,Bellevue,WA,98004,Public,MON: 24 hours | TUE: 24 hours | WED: 24 hours | THU: 24 hours | FRI: 24 hours | SAT: 24 hours | SUN: 24 hours,GPS,47.619989,-122.190555,2022-07-24,2022-07-24 22:55:19 UTC,2012-01-15
96400,Bellevue College - Lot C7 Snoqualmie River Road,3036 Snoqualmie River Road,Bellevue,WA,98005,Public,MON: 24 hours | TUE: 24 hours | WED: 24 hours | THU: 24 hours | FRI: 24 hours | SAT: 24 hours | SUN: 24 hours,GPS,47.58495,-122.15043,2022-07-24,2022-07-24 22:55:19 UTC,2017-09-08
99270,805 156th NE Bellevue WA,805 156th NE,Bellevue,WA,98007,Public,24 hours daily,200-9,47.617634,-122.133439,2022-07-25,2022-07-25 01:34:04 UTC,2018-06-14
99293,LNI Bellevue 120th NE,616 120th Aveneue NE,Bellevue,WA,98005,Public,24 hours daily,200-9,47.61541,-122.179484,2022-07-25,2022-07-25 01:31:49 UTC,2018-06-14
99407,LINC SQUARE EXP LSS P2 106-107,440 Bellevue Way NE,Bellevue,WA,98004,Public,24 hours daily,GPS,47.614503,-122.201196,2022-07-25,2022-07-25 00:53:25 UTC,2018-06-22
99408,LINC SQUARE EXP LSS P2 109-110,424 104th Ave NE,Bellevue,WA,98004,Public,24 hours daily,GPS,47.614311,-122.201051,2022-07-25,2022-07-25 00:53:25 UTC,2018-06-22
99409,LINC SQUARE EXP LSS P2 100-101,414 104th Ave NE,Bellevue,WA,98004,Public,24 hours daily,GPS,47.614752,-122.200829,2022-07-25,2022-07-25 00:53:15 UTC,2018-06-22
99410,LINC SQUARE EXP LSS P2 92-93,500 Bellevue Way NE,Bellevue,WA,98004,Public,24 hours daily,GPS,47.614649,-122.200751,2022-07-25,2022-07-25 00:53:15 UTC,2018-06-22
105066,KING COUNTY DOT FACTORIA TRANSF,13800 SE 32nd St,Bellevue,WA,98005,Public,24 hours daily,GPS,47.582336,-122.158644,2022-07-25,2022-07-25 00:52:19 UTC,2018-12-01
116075,Courtyard by Marriott Seattle Bellevue/Downtown - Tesla Destination,11010 NE 8th St,Bellevue,WA,98004,Public - Call ahead,24 hours daily; for customer use only,200-9,47.617665,-122.193105,2020-11-03,2021-03-11 23:22:17 UTC,2017-03-01
116076,Marriott Bellevue - Tesla Destination,200 110th Ave,Bellevue,WA,98004,Public,24 hours daily; for customer use only; see valet for access,200-9,47.61273,-122.192893,2020-11-03,2021-03-11 23:22:17 UTC,2015-12-01
116077,Marriott AC Bellevue - Tesla Destination,208 106th Pl NE,Bellevue,WA,98004,Public,24 hours daily; pay lot; see valet for access,200-8,47.612127,-122.198017,2020-11-03,2021-03-11 23:22:17 UTC,2018-11-01
116078,Hilton Bellevue - Tesla Destination,300 112th Ave SE,Bellevue,WA,98004,Public,24 hours daily; for customer use only,200-8,47.607119,-122.190562,2020-11-03,2021-03-11 23:22:17 UTC,2015-12-01
117286,Bellevue City Hall,450 110th Ave NE,Bellevue,WA,98004,Private,Private,200-9,47.614293,-122.192294,2022-01-10,2022-02-10 19:42:29 UTC,2018-12-03
117302,SRO SP2,3545 Factoria Blvd SE,Bellevue,WA,98006,Public,24 hours daily,GPS,47.578255,-122.17137,2022-07-25,2022-07-25 00:58:27 UTC,2019-01-24
117303,SRO SP1,3535 Factoria Blvd SE,Bellevue,WA,98006,Public,24 hours daily,GPS,47.578784,-122.171273,2022-07-25,2022-07-25 00:58:25 UTC,2019-01-24
119039,JLR BELLEVUE DC FAST 01,13817 NE 20th St,Bellevue,WA,98005,Public,24 hours daily,GPS,47.627443,-122.155925,2022-07-25,2022-07-25 00:58:58 UTC,2019-03-08
121397,521606-CIVICA OFFICE COMMONS,225-108TH AVE NE,Bellevue,WA,98004,Public,24 hours daily,GPS,47.6123,-122.1966,2022-07-25,2022-07-25 01:32:08 UTC,2019-04-13
122765,LINCOLN SQUARE LS NORTH DUAL 4,110 Bellevue Way NE,Bellevue,WA,98004,Public,24 hours daily,GPS,47.616294,-122.201029,2022-07-25,2022-07-25 01:01:55 UTC,2019-05-15
122781,BELLEVUE PLACE BELL PLACE #2,575 Bellevue Way NE,Bellevue,WA,98004,Public,24 hours daily,GPS,47.618421,-122.20129,2022-07-25,2022-07-25 01:01:57 UTC,2019-05-16
122957,BELLEVUE SQUARE BELL SQ WEST #4,600 100th Ave NE,Bellevue,WA,98004,Public,24 hours daily,GPS,47.615943,-122.205532,2022-07-25,2022-07-25 01:02:03 UTC,2019-05-22
122993,BELLEVUE SQUARE BELL SQ WEST #3,2086 Bellevue Square,Bellevue,WA,98004,Public,24 hours daily,GPS,47.615991,-122.205533,2022-07-25,2022-07-25 01:02:03 UTC,2019-05-23
123331,Verizon - Bellevue,3245 158th Ave SE,Bellevue,WA,98008,Private,For employee use only,200-9,47.579872,-122.135431,2021-03-15,2022-04-27 21:28:54 UTC,2019-05-01
143313,EASTSIDE HD DCFAST HOG,2350 136th Pl NE,Bellevue,WA,98005,Public,24 hours daily,GPS,47.630585,-122.15664,2022-07-25,2022-07-25 01:03:07 UTC,2019-08-15
145256,AMC Factoria 8,3505 Factoria Blvd SE,Bellevue,WA,98006,Public,6am-12am daily,GPS,47.578664,-122.170463,2021-04-08,2022-02-10 19:42:29 UTC,2019-09-01
147301,UDR CHARGER 4,958 111th Ave NE,Bellevue,WA,98004,Public,24 hours daily,GPS,47.618696,-122.191787,2022-07-25,2022-07-25 01:05:42 UTC,2019-10-26
147519,Ridgewood Corporate Square Building F,150 120th Ave NE,Bellevue,WA,98005,Public,MON: 24 hours | TUE: 24 hours | WED: 24 hours | THU: 24 hours | FRI: 24 hours | SAT: 24 hours | SUN: 24 hours,GPS,47.611815,-122.178134,2022-07-24,2022-07-24 22:55:19 UTC,2019-11-06
147537,Ridgewood Corporate Square Building C,330 120th Ave NE,Bellevue,WA,98005,Private,MON: 24 hours | TUE: 24 hours | WED: 24 hours | THU: 24 hours | FRI: 24 hours | SAT: 24 hours | SUN: 24 hours,GPS,47.612834,-122.178704,2022-07-24,2022-07-24 22:55:19 UTC,2019-11-07
147710,"Walgreens - Bellevue, WA #3662",647 140th Ave NE,Bellevue,WA,98005,Public,MO: Not Specified; TU: Not Specified; WE: Not Specified; TH: Not Specified; FR: Not Specified; SA: Not Specified; SU: Not Specified,GPS,47.6165569,-122.1537017,2022-07-25,2022-07-25 00:31:01 UTC,2012-03-01
147716,Bellevue Corporate Plaza,"600 108th Avenue, NE
Suite 116",Bellevue,WA,98004,Public,MO: 12:00am-12:00am; TU: 12:00am-12:00am; WE: 12:00am-12:00am; TH: 12:00am-12:00am; FR: 12:00am-12:00am; SA: 12:00am-12:00am; SU: 12:00am-12:00am,GPS,47.6159842,-122.195596,2022-07-25,2022-07-25 00:31:01 UTC,2017-03-15
147719,531607 : Centre 425 / Everest,425 106th Avenue Northeast,Bellevue,WA,98004,Public,MO: Not Specified; TU: Not Specified; WE: Not Specified; TH: Not Specified; FR: Not Specified; SA: Not Specified; SU: Not Specified,GPS,47.6141795,-122.199362,2022-07-25,2022-07-25 00:31:01 UTC,2019-06-15
147724,531614 :Sunset Corporate Campus,13810 Southeast Eastgate Way,Bellevue,WA,98005,Public,MO: 12:00am-12:00am; TU: 12:00am-12:00am; WE: 12:00am-12:00am; TH: 12:00am-12:00am; FR: 12:00am-12:00am; SA: 12:00am-12:00am; SU: 12:00am-12:00am,GPS,47.5806355,-122.1564536,2022-07-25,2022-07-25 00:31:01 UTC,2018-12-27
147725,Sunset Corporate Campus,13810 Southeast Eastgate Way,Bellevue,WA,98005,Public,MO: Not Specified; TU: Not Specified; WE: Not Specified; TH: Not Specified; FR: Not Specified; SA: Not Specified; SU: Not Specified,GPS,47.5806355,-122.1564536,2022-07-25,2022-07-25 00:31:01 UTC,2018-12-27
149501,Hilton Garden Inn Bellevue,10777 Northeast 10th Street,Bellevue,WA,98004,Public,MO: Not Specified; TU: Not Specified; WE: Not Specified; TH: Not Specified; FR: Not Specified; SA: Not Specified; SU: Not Specified,GPS,47.6188924,-122.1969419,2022-07-25,2022-07-25 00:31:01 UTC,2019-11-26
150466,CCB CCB 1,500 108th Ave NE,Bellevue,WA,98004,Public,24 hours daily,GPS,47.61479,-122.195543,2022-07-25,2022-07-25 01:07:24 UTC,2019-12-21
152374,Highland Village Apartments,14526 NE 7th Place,Bellevue,WA,98007,Public,MON: 24 hours | TUE: 24 hours | WED: 24 hours | THU: 24 hours | FRI: 24 hours | SAT: 24 hours | SUN: 24 hours,GPS,47.616737,-122.146188,2022-07-24,2022-07-24 22:55:19 UTC,2020-01-11
154094,BELLEVUE 110TH & 10TH,938 110th Ave NE,Bellevue,WA,98004,Public,24 hours daily,GPS,47.61903,-122.19342,2022-07-25,2022-07-25 01:09:00 UTC,2020-02-27
154096,BELLEVUE X-ROADS PARK 2,16256 NE 8th St,Bellevue,WA,98008,Public,24 hours daily,GPS,47.617126,-122.12226,2022-07-25,2022-07-25 01:08:54 UTC,2020-02-27
155534,BELLEVUE X-ROADS CC,16000 NE 10th St,Bellevue,WA,98008,Public,24 hours daily,GPS,47.619103,-122.127103,2022-07-25,2022-07-25 01:08:56 UTC,2020-04-23
155535,BELLEVUE X-ROADS PARK 1,999 164th Ave NE,Bellevue,WA,98008,Public,24 hours daily,GPS,47.61822,-122.122476,2022-07-25,2022-07-25 01:08:54 UTC,2020-04-23
162808,ATRIUM GARAGE ATRIUM GARAGE,110 110th Ave NE,Bellevue,WA,98004,Public,24 hours daily,GPS,47.611456,-122.193235,2022-07-25,2022-07-25 00:41:07 UTC,2020-06-12
162810,BELLEFIELD MADRONA 1,1300 114th Ave SE,Bellevue,WA,98004,Public,24 hours daily,GPS,47.599757,-122.187281,2022-07-25,2022-07-25 00:41:04 UTC,2020-06-12
165178,"BELLEVUECOLLEGE BC SSC,U BLDG2",3000 Landerholm Cir SE,Bellevue,WA,98007,Public,24 hours daily,GPS,47.584536,-122.148517,2022-07-25,2022-07-25 01:12:25 UTC,2020-08-12
165179,"BELLEVUECOLLEGE BC SSC,U BLDG1",3000 Landerholm Cir SE Bellevue,Bellevue,WA,98007,Public,24 hours daily,GPS,47.584556,-122.148459,2022-07-25,2022-07-25 01:12:25 UTC,2020-08-12
165275,KGIP BELL SOUTH STATION 6,316 116th Ave NE,Bellevue,WA,98114,Public,24 hours daily,GPS,47.612677,-122.185136,2022-07-25,2022-07-25 01:10:58 UTC,2020-08-15
165276,KGIP BELL SOUTH STATION 1,376 116th Ave NE,Bellevue,WA,98114,Public,24 hours daily,GPS,47.612661,-122.185158,2022-07-25,2022-07-25 01:10:57 UTC,2020-08-15
167379,KGIP BELL SOUTH STATION 2,316 116th Ave NE,Bellevue,WA,98004,Public,24 hours daily,GPS,47.612419,-122.184446,2022-07-25,2022-07-25 01:10:57 UTC,2020-10-07
168122,Stay Pineapple,155 108th Ave NE,Bellevue,WA,98004,Public,MON: 24 hours | TUE: 24 hours | WED: 24 hours | THU: 24 hours | FRI: 24 hours | SAT: 24 hours | SUN: 24 hours,GPS,47.61176,-122.19734,2022-07-24,2022-07-24 22:55:19 UTC,2020-11-05
171512,BELLEVUE SBCC #1,14509 SE Newport Way,Bellevue,WA,98006,Public,24 hours daily,GPS,47.569022,-122.145782,2022-07-25,2022-07-25 01:08:52 UTC,2021-01-27
171659,KEY CENTER KEY CENTER 5,601 108th Ave NE,Bellevue,WA,98004,Public,24 hours daily,GPS,47.6161,-122.19692,2022-07-25,2022-07-25 01:08:06 UTC,2021-01-27
171660,KEY CENTER KEY CENTER 4,601 108th Ave NE,Bellevue,WA,98004,Public,24 hours daily,GPS,47.616143,-122.19689,2022-07-25,2022-07-25 01:08:06 UTC,2021-01-27
171661,KEY CENTER STATION 3,601 108th Ave NE,Bellevue,WA,98004,Public,24 hours daily,GPS,47.616057,-122.196775,2022-07-25,2022-07-25 00:56:53 UTC,2021-01-27
171662,KEY CENTER STATION 2,601 108th Ave NE,Bellevue,WA,98004,Public,24 hours daily,GPS,47.616072,-122.196829,2022-07-25,2022-07-25 00:56:53 UTC,2021-01-27
171663,KEY CENTER STATION 1,601 108th Ave NE,Bellevue,WA,98004,Public,24 hours daily,GPS,47.616101,-122.196893,2022-07-25,2022-07-25 00:56:30 UTC,2021-01-27
171665,KRC SKYLINE SKYLINE #2,10900 NE 4th St,Bellevue,WA,98004,Public,24 hours daily,GPS,47.614334,-122.19401,2022-07-25,2022-07-25 01:03:18 UTC,2021-01-27
171666,KRC SKYLINE SKYLINE #3,10900 NE 4th St,Bellevue,WA,98004,Public,24 hours daily,GPS,47.614305,-122.194097,2022-07-25,2022-07-25 01:03:17 UTC,2021-01-27
171794,UDR ASHTON BELL #1,10710 NE 10th St,Bellevue,WA,98004,Public,24 hours daily,GPS,47.619708,-122.197202,2022-07-25,2022-07-25 00:42:06 UTC,2021-01-27
171795,UDR TEN20 #2,10710 NE 10th St,Bellevue,WA,98004,Public,24 hours daily,GPS,47.619982,-122.19603,2022-07-25,2022-07-25 00:42:17 UTC,2021-01-27
171930,HAMPTON INN NORTH FRONT,11505 NE 2nd Pl,Bellevue,WA,98004,Public,24 hours daily,GPS,47.612051,-122.186391,2022-07-25,2022-07-25 00:44:46 UTC,2021-01-27
172031,THE SUMMIT THE SUMMIT - P1,10885 NE 4th St,Bellevue,WA,98004,Public,24 hours daily,GPS,47.61339,-122.194777,2022-07-25,2022-07-25 00:51:28 UTC,2021-01-27
172053,BELLEVUE DOWNTOWN PARK 1,10201 NE 4th St,Bellevue,WA,98004,Public,24 hours daily,GPS,47.613224,-122.206542,2022-07-25,2022-07-25 00:51:31 UTC,2021-01-27
172561,BELLEVUE SQUARE BELL SQ NORTH 2,Bellevue Square - North Building104th Ave NE,Bellevue,WA,98004,Public,24 hours daily,GPS,47.616939,-122.203004,2022-07-25,2022-07-25 00:52:41 UTC,2021-01-27
172562,BELLEVUE SQUARE BELL SQ NORTH 3,Bellevue Square - North Building104th Ave NE,Bellevue,WA,98004,Public,24 hours daily,GPS,47.616865,-122.202993,2022-07-25,2022-07-25 00:52:41 UTC,2021-01-27
172563,BELLEVUE SQUARE BELL SQ NORTH 4,Bellevue Square - North Building104th Ave NE,Bellevue,WA,98004,Public,24 hours daily,GPS,47.61677,-122.203004,2022-07-25,2022-07-25 00:52:41 UTC,2021-01-27
172572,LINC SQUARE EXP LSS P6 1,410 Bellevue Way NE,Bellevue,WA,98004,Public,24 hours daily,GPS,47.614098,-122.200748,2022-07-25,2022-07-25 00:55:19 UTC,2021-01-27
172573,LINC SQUARE EXP LSS P2 111-112,410 Bellevue Way NE,Bellevue,WA,98004,Public,24 hours daily,GPS,47.614394,-122.200531,2022-07-25,2022-07-25 00:53:49 UTC,2021-01-27
172574,LINC SQUARE EXP LSS P2 104-105,410 Bellevue Way NE,Bellevue,WA,98004,Public,24 hours daily,GPS,47.614456,-122.200654,2022-07-25,2022-07-25 00:53:25 UTC,2021-01-27
172575,LINC SQUARE EXP LSE P2 #1,410 Bellevue Way NE,Bellevue,WA,98004,Public,24 hours daily,GPS,47.614157,-122.20117,2022-07-25,2022-07-25 00:47:59 UTC,2021-01-27
173268,LINC SQUARE EXP LSS P2 102-103,440 Bellevue Way NE,Bellevue,WA,98004,Public,24 hours daily,GPS,47.614517,-122.200807,2022-07-25,2022-07-25 00:53:15 UTC,2021-01-27
173269,LINC SQUARE EXP LSS P2 96 97,424 104th Ave NE,Bellevue,WA,98004,Public,24 hours daily,GPS,47.614302,-122.200871,2022-07-25,2022-07-25 00:53:15 UTC,2021-01-27
173271,LINC SQUARE EXP LSS P2 123-124,424 104th Ave NE,Bellevue,WA,98004,Public,24 hours daily,GPS,47.614315,-122.201099,2022-07-25,2022-07-25 00:53:15 UTC,2021-01-27
173871,JLR BELLEVUE SHOP 01,13817 NE 20th St,Bellevue,WA,98005,Public,24 hours daily,GPS,47.627472,-122.155871,2022-07-25,2022-07-25 00:58:16 UTC,2021-01-27
174037,LINCOLN SQUARE LS NORTH DUAL 3,110 Bellevue Way NE,Bellevue,WA,98004,Public,24 hours daily,GPS,47.616363,-122.201035,2022-07-25,2022-07-25 01:01:55 UTC,2021-01-27
174038,LINCOLN SQUARE LS NORTH DUAL 2,110 Bellevue Way NE,Bellevue,WA,98004,Public,24 hours daily,GPS,47.616372,-122.201111,2022-07-25,2022-07-25 01:01:55 UTC,2021-01-27
174039,LINCOLN SQUARE LS NORTH DUAL 1,110 Bellevue Way NE,Bellevue,WA,98004,Public,24 hours daily,GPS,47.616416,-122.201146,2022-07-25,2022-07-25 01:01:55 UTC,2021-01-27
174041,BELLEVUE PLACE BELL PLACE #1,575 Bellevue Way NE,Bellevue,WA,98004,Public,24 hours daily,GPS,47.618331,-122.201301,2022-07-25,2022-07-25 01:01:57 UTC,2021-01-27
174057,BELLEVUE SQUARE BELL SQ WEST 5,600 100th Ave NE,Bellevue,WA,98004,Public,24 hours daily,GPS,47.615923,-122.20553,2022-07-25,2022-07-25 01:02:02 UTC,2021-01-27
174084,BELLEVUE SQUARE BELL SQ WEST #1,2088 Bellevue Square,Bellevue,WA,98004,Public,24 hours daily,GPS,47.616107,-122.205532,2022-07-25,2022-07-25 01:02:03 UTC,2021-01-27
174575,UDR CHARGER 1,958 111th Ave NE,Bellevue,WA,98004,Public,24 hours daily,GPS,47.61868,-122.191821,2022-07-25,2022-07-25 01:05:41 UTC,2021-01-27
174576,UDR CHARGER 3,958 111th Ave NE,Bellevue,WA,98004,Public,24 hours daily,GPS,47.618669,-122.191761,2022-07-25,2022-07-25 01:05:41 UTC,2021-01-27
174874,CCB CCB 2,500 108th Ave NE,Bellevue,WA,98004,Public,24 hours daily,GPS,47.614756,-122.195468,2022-07-25,2022-07-25 01:07:23 UTC,2021-01-27
180340,BELLEFIELD MADRONA 2,1300 114th Ave SE,Bellevue,WA,98004,Public,24 hours daily,GPS,47.599721,-122.187136,2022-07-25,2022-07-25 00:41:03 UTC,2021-01-27
180988,"BELLEVUECOLLEGE BC SSC,U BLDG3",3000 Landerholm Cir SE,Bellevue,WA,98007,Public,24 hours daily,GPS,47.584483,-122.148539,2022-07-25,2022-07-25 01:12:25 UTC,2021-01-27
181036,KGIP BELL SOUTH STATION 5,316 116th Ave NE,Bellevue,WA,98114,Public,24 hours daily,GPS,47.612704,-122.185139,2022-07-25,2022-07-25 01:10:58 UTC,2021-01-27
181037,KGIP BELL SOUTH STATION 4,316 116th Ave NE,Bellevue,WA,98114,Public,24 hours daily,GPS,47.612706,-122.18514,2022-07-25,2022-07-25 01:10:58 UTC,2021-01-27
181038,KGIP BELL SOUTH STATION 3,316 116th Ave NE,Bellevue,WA,98114,Public,24 hours daily,GPS,47.613355,-122.185049,2022-07-25,2022-07-25 01:10:57 UTC,2021-01-27
184914,"Safeway #1600 (Bellevue, WA)",300 BELLEVUE WAYNE,Bellevue,WA,98004,Public,24 hours daily,GPS,47.613323,-122.200622,2022-07-25,2022-07-25 01:35:46 UTC,2021-02-12
186096,Hampton Greens,4747 148th Ave NE,Bellevue,WA,98007,Public,MON: 24 hours | TUE: 24 hours | WED: 24 hours | THU: 24 hours | FRI: 24 hours | SAT: 24 hours | SUN: 24 hours,GPS,47.653125,-122.143971,2022-07-24,2022-07-24 22:55:19 UTC,2021-03-11
186605,BLOCK 16 FB BELLEVUE 17,1288 123rd Ave NE,Bellevue,WA,98005,Public,24 hours daily,GPS,47.622158,-122.176042,2022-07-25,2022-07-25 01:14:37 UTC,2021-03-27
186606,BLOCK 16 FB BELLEVUE 15,1287 124th Ave NE,Bellevue,WA,98005,Public,24 hours daily,GPS,47.622172,-122.175417,2022-07-25,2022-07-25 01:14:37 UTC,2021-03-27
186607,BLOCK 16 FB BELLEVUE 8,1288 123rd Ave NE,Bellevue,WA,98005,Public,24 hours daily,GPS,47.621787,-122.175997,2022-07-25,2022-07-25 01:14:37 UTC,2021-03-27
186608,BLOCK 16 FB BELLEVUE 7,1288 123rd Ave NE,Bellevue,WA,98005,Public,24 hours daily,GPS,47.621722,-122.175868,2022-07-25,2022-07-25 01:14:37 UTC,2021-03-27
186609,BLOCK 16 FB BELLEVUE 11,1288 123rd Ave NE,Bellevue,WA,98005,Public,24 hours daily,GPS,47.621671,-122.17589,2022-07-25,2022-07-25 01:14:37 UTC,2021-03-27
186610,BLOCK 16 FB BELLEVUE 3,1288 123rd Ave NE,Bellevue,WA,98005,Public,24 hours daily,GPS,47.621852,-122.175836,2022-07-25,2022-07-25 01:14:37 UTC,2021-03-27
186611,BLOCK 16 FB BELLEVUE 9,1288 123rd Ave NE,Bellevue,WA,98005,Public,24 hours daily,GPS,47.621751,-122.175943,2022-07-25,2022-07-25 01:14:37 UTC,2021-03-27
186612,BLOCK 16 FB BELLEVUE 6,1288 123rd Ave NE,Bellevue,WA,98005,Public,24 hours daily,GPS,47.621758,-122.175804,2022-07-25,2022-07-25 01:14:37 UTC,2021-03-27
186613,BLOCK 16 FB BELLEVUE 13,1288 123rd Ave NE,Bellevue,WA,98005,Public,24 hours daily,GPS,47.621743,-122.176008,2022-07-25,2022-07-25 01:14:38 UTC,2021-03-27
186614,BLOCK 16 FB BELLEVUE 21,1288 123rd Ave NE,Bellevue,WA,98005,Public,24 hours daily,GPS,47.62216,-122.176,2022-07-25,2022-07-25 01:14:38 UTC,2021-03-27
186615,BLOCK 16 FB BELLEVUE 2,1288 123rd Ave NE,Bellevue,WA,98005,Public,24 hours daily,GPS,47.621837,-122.175922,2022-07-25,2022-07-25 01:14:38 UTC,2021-03-27
186616,BLOCK 16 FB BELLEVUE 16,1288 123rd Ave NE,Bellevue,WA,98005,Public,24 hours daily,GPS,47.622008,-122.175897,2022-07-25,2022-07-25 01:14:38 UTC,2021-03-27
186617,BLOCK 16 FB BELLEVUE 4,1288 123rd Ave NE,Bellevue,WA,98005,Public,24 hours daily,GPS,47.62183,-122.175707,2022-07-25,2022-07-25 01:14:38 UTC,2021-03-27
186618,BLOCK 16 FB BELLEVUE 10,1288 123rd Ave NE,Bellevue,WA,98005,Public,24 hours daily,GPS,47.621748,-122.175959,2022-07-25,2022-07-25 01:14:38 UTC,2021-03-27
186619,BLOCK 16 FB BELLEVUE 19,1288 123rd Ave NE,Bellevue,WA,98005,Public,24 hours daily,GPS,47.621685,-122.176008,2022-07-25,2022-07-25 01:14:38 UTC,2021-03-27
186620,BLOCK 16 FB BELLEVUE 22,1288 123rd Ave NE,Bellevue,WA,98005,Public,24 hours daily,GPS,47.621826,-122.175977,2022-07-25,2022-07-25 01:14:38 UTC,2021-03-27
186621,BLOCK 16 FB BELLEVUE 12,1288 123rd Ave NE,Bellevue,WA,98005,Public,24 hours daily,GPS,47.621808,-122.176051,2022-07-25,2022-07-25 01:14:38 UTC,2021-03-27
186622,BLOCK 16 FB BELLEVUE 23,1288 123rd Ave NE,Bellevue,WA,98005,Public,24 hours daily,GPS,47.621657,-122.175954,2022-07-25,2022-07-25 01:14:38 UTC,2021-03-27
186623,BLOCK 16 FB BELLEVUE 20,1288 123rd Ave NE,Bellevue,WA,98005,Public,24 hours daily,GPS,47.622044,-122.175811,2022-07-25,2022-07-25 01:14:39 UTC,2021-03-27
186624,BLOCK 16 FB BELLEVUE 18,1288 123rd Ave NE,Bellevue,WA,98005,Public,24 hours daily,GPS,47.62211,-122.175807,2022-07-25,2022-07-25 01:14:39 UTC,2021-03-27
186625,BLOCK 16 FB BELLEVUE 14,1288 123rd Ave NE,Bellevue,WA,98005,Public,24 hours daily,GPS,47.621921,-122.176015,2022-07-25,2022-07-25 01:14:39 UTC,2021-03-27
186626,BLOCK 16 FB BELLEVUE 1,1288 123rd Ave NE,Bellevue,WA,98005,Public,24 hours daily,GPS,47.621942,-122.175942,2022-07-25,2022-07-25 01:14:39 UTC,2021-03-27
186869,Venn@Main - Tesla Supercharger,10333 NE 1st Street,Bellevue,WA,98004,Public,24 hours daily; for Tesla use only,GPS,47.611048,-122.202181,2021-10-11,2021-11-04 18:37:47 UTC,2021-03-29
187144,BLOCK 16 FB BELLEVUE 5,1288 123rd Ave NE,Bellevue,WA,98005,Public,24 hours daily,GPS,47.621784,-122.175908,2022-07-25,2022-07-25 01:14:38 UTC,2021-04-08
187722,The Marketplace at Factoria,3901 Factoria Square Mall SE,Bellevue,WA,98006,Public,6am-12am daily,GPS,47.575728,-122.170821,2021-05-06,2022-02-10 19:42:29 UTC,2021-04-12
190042,LINC SQUARE EXP LSS P2 98-99,424 104th Ave NE,Bellevue,WA,98004,Public,24 hours daily,GPS,47.614345,-122.200772,2022-07-25,2022-07-25 00:53:15 UTC,2021-05-25
190533,Ridgewood Corporate Square Building G,"11900 NE 1st Street, Building G",Bellevue,WA,98005,Public,MON: 24 hours | TUE: 24 hours | WED: 24 hours | THU: 24 hours | FRI: 24 hours | SAT: 24 hours | SUN: 24 hours,GPS,47.611519,-122.182197,2022-07-24,2022-07-24 22:55:19 UTC,2021-06-01
190534,Ridgewood Corporate Square Building D,220 120th Ave NE,Bellevue,WA,98005,Public,MON: 24 hours | TUE: 24 hours | WED: 24 hours | THU: 24 hours | FRI: 24 hours | SAT: 24 hours | SUN: 24 hours,GPS,47.611815,-122.178134,2022-07-24,2022-07-24 22:55:19 UTC,2021-06-01
193683,SEA94 SEA94 05,333 108th Ave NE,Bellevue,WA,98004,Public,24 hours daily,GPS,47.613364,-122.196731,2022-07-25,2022-07-25 01:18:27 UTC,2021-08-10
193684,SEA94 SEA94 10,333 108th Ave NE,Bellevue,WA,98004,Public,24 hours daily,GPS,47.613372,-122.196796,2022-07-25,2022-07-25 01:18:27 UTC,2021-08-10
193685,SEA94 SEA94 09,333 108th Ave NE,Bellevue,WA,98004,Public,24 hours daily,GPS,47.613343,-122.196839,2022-07-25,2022-07-25 01:18:27 UTC,2021-08-10
193686,SEA94 SEA94 04,333 108th Ave NE,Bellevue,WA,98004,Public,24 hours daily,GPS,47.613386,-122.196667,2022-07-25,2022-07-25 01:18:27 UTC,2021-08-10
193687,SEA94 SEA94 01,333 108th Ave NE,Bellevue,WA,98004,Public,24 hours daily,GPS,47.613372,-122.196721,2022-07-25,2022-07-25 01:18:27 UTC,2021-08-10
193688,SEA94 SEA94 02,333 108th Ave NE,Bellevue,WA,98004,Public,24 hours daily,GPS,47.613386,-122.19671,2022-07-25,2022-07-25 01:18:27 UTC,2021-08-10
193689,SEA94 SEA94 11,333 108th Ave NE,Bellevue,WA,98004,Public,24 hours daily,GPS,47.61335,-122.196817,2022-07-25,2022-07-25 01:18:27 UTC,2021-08-10
193690,SEA94 SEA94 06,333 108th Ave NE,Bellevue,WA,98004,Public,24 hours daily,GPS,47.613401,-122.19671,2022-07-25,2022-07-25 01:18:27 UTC,2021-08-10
193691,SEA94 SEA94 13,333 108th Ave NE,Bellevue,WA,98004,Public,24 hours daily,GPS,47.613357,-122.196882,2022-07-25,2022-07-25 01:18:27 UTC,2021-08-10
193692,SEA94 SEA94 08,333 108th Ave NE,Bellevue,WA,98004,Public,24 hours daily,GPS,47.613364,-122.196774,2022-07-25,2022-07-25 01:18:28 UTC,2021-08-10
193693,SEA94 SEA94 12,333 108th Ave NE,Bellevue,WA,98004,Public,24 hours daily,GPS,47.613357,-122.196624,2022-07-25,2022-07-25 01:18:28 UTC,2021-08-10
193694,SEA94 SEA94 07,333 108th Ave NE,Bellevue,WA,98004,Public,24 hours daily,GPS,47.613343,-122.196753,2022-07-25,2022-07-25 01:18:28 UTC,2021-08-10
193695,SEA94 SEA94 03,333 108th Ave NE,Bellevue,WA,98004,Public,24 hours daily,GPS,47.613343,-122.196699,2022-07-25,2022-07-25 01:18:28 UTC,2021-08-10
193711,SEA94 SEA94 14,333 108th Ave NE,Bellevue,WA,98004,Public,24 hours daily,GPS,47.613415,-122.196955,2022-07-25,2022-07-25 01:20:20 UTC,2021-08-10
193933,Overlake Medical Pavilion,1231 116th Ave NE,Bellevue,WA,98004,Public,MON: 24 hours | TUE: 24 hours | WED: 24 hours | THU: 24 hours | FRI: 24 hours | SAT: 24 hours | SUN: 24 hours,GPS,47.621194,-122.186139,2022-07-24,2022-07-24 22:55:19 UTC,2021-08-16
195117,929 Office Tower,929 108th Avenue NE,Bellevue,WA,98004,Public,MO: 12:00am-12:00am; TU: 12:00am-12:00am; WE: 12:00am-12:00am; TH: 12:00am-12:00am; FR: 12:00am-12:00am; SA: 12:00am-12:00am; SU: 12:00am-12:00am,GPS,47.618317,-122.1969022,2022-07-25,2022-07-25 00:31:01 UTC,2021-09-05
195118,Venn at Main Apartments,10333 NE 1st St,Bellevue,WA,98004,Public,MO: Not Specified; TU: Not Specified; WE: Not Specified; TH: Not Specified; FR: Not Specified; SA: Not Specified; SU: Not Specified,GPS,47.6110064,-122.2021671,2022-07-25,2022-07-25 00:31:01 UTC,2021-09-05
195119,Sunset North,3100 139th Avenue Southeast,Bellevue,WA,98005,Public,MO: Not Specified; TU: Not Specified; WE: Not Specified; TH: Not Specified; FR: Not Specified; SA: Not Specified; SU: Not Specified,GPS,47.582405,-122.153989,2022-07-25,2022-07-25 00:31:01 UTC,2021-09-05
195413,Plaza East,11100 Northeast 8th Street,Bellevue,WA,98004,Public,MO: Not Specified; TU: Not Specified; WE: Not Specified; TH: Not Specified; FR: Not Specified; SA: Not Specified; SU: Not Specified,GPS,47.6177789,-122.1915562,2022-07-25,2022-07-25 00:31:01 UTC,2021-09-07
198943,Whole Foods Bellevue (BLV),888 116th Ave NE,Bellevue,WA,98004,Public,24 hours daily,GPS,47.618675,-122.18436,2022-07-25,2022-07-25 01:31:15 UTC,2021-10-25
199480,BLOCK 24 FB STATION 8,12355 NE District Way,Bellevue,WA,98005,Public,24 hours daily,GPS,47.621055,-122.175961,2022-07-25,2022-07-25 01:20:22 UTC,2021-10-30
199481,BLOCK 24 FB STATION 2,12355 NE District Wy,Bellevue,WA,98005,Public,24 hours daily,GPS,47.62119,-122.176009,2022-07-25,2022-07-25 01:20:22 UTC,2021-10-30
199483,BLOCK 24 FB STATION 4,12355 NE District Wy,Bellevue,WA,98005,Public,24 hours daily,GPS,47.62118,-122.175985,2022-07-25,2022-07-25 01:20:22 UTC,2021-10-30
199484,BLOCK 24 FB STATION 1,12355 NE District Wy,Bellevue,WA,98005,Public,24 hours daily,GPS,47.621179,-122.176023,2022-07-25,2022-07-25 01:20:22 UTC,2021-10-30
199485,BLOCK 24 FB STATION 5,12355 NE District Wy,Bellevue,WA,98005,Public,24 hours daily,GPS,47.621169,-122.175976,2022-07-25,2022-07-25 01:20:23 UTC,2021-10-30
199486,BLOCK 24 FB STATION 6,12355 NE District Way,Bellevue,WA,98005,Public,24 hours daily,GPS,47.620982,-122.175927,2022-07-25,2022-07-25 01:20:23 UTC,2021-10-30
199487,BLOCK 24 FB STATION 7,12355 NE District Way,Bellevue,WA,98005,Public,24 hours daily,GPS,47.620905,-122.175829,2022-07-25,2022-07-25 01:20:23 UTC,2021-10-30
199522,Yuhl Building,12828 Northup Way,Bellevue,WA,98005,Public,MO: 12:00am-12:00am; TU: 12:00am-12:00am; WE: 12:00am-12:00am; TH: 12:00am-12:00am; FR: 12:00am-12:00am; SA: 12:00am-12:00am; SU: 12:00am-12:00am,GPS,47.6286214,-122.1700569,2022-07-25,2022-07-25 00:31:01 UTC,2021-10-31
201299,Somerset Gardens Apartments,14700 NE 29th Pl,Bellevue,WA,98007,Public,MON: 24 hours | TUE: 24 hours | WED: 24 hours | THU: 24 hours | FRI: 24 hours | SAT: 24 hours | SUN: 24 hours,GPS,47.636824,-122.144188,2022-07-24,2022-07-24 22:55:19 UTC,2021-11-17
201639,Tower 333,333 108th Avenue Northeast,Bellevue,WA,98004,Public,MO: 07:00am-08:00pm; TU: 07:00am-08:00pm; WE: 07:00am-08:00pm; TH: 07:00am-08:00pm; FR: 07:00am-08:00pm; SA: 07:00am-08:00pm; SU: Closed,GPS,47.6133892,-122.1970996,2022-07-25,2022-07-25 00:31:01 UTC,2021-11-26
202475,KRC SKYLINE STATION #4,10900 NE 4th St,Bellevue,WA,98004,Public,24 hours daily,GPS,47.613972,-122.194125,2022-07-25,2022-07-25 01:23:42 UTC,2021-12-14
202476,KRC SKYLINE STATION #5,10900 NE 4th St,Bellevue,WA,98004,Public,24 hours daily,GPS,47.613973,-122.194071,2022-07-25,2022-07-25 01:23:42 UTC,2021-12-14
202946,EASTGATE 15325 DUAL,15325 SE 30th Pl,Bellevue,WA,98007,Public,24 hours daily,GPS,47.584289,-122.136777,2022-07-25,2022-07-25 01:06:04 UTC,2021-12-23
205085,JLR BELLEVUE DC WALLBOX,13817 NE 20th St,Bellevue,WA,98005,Public,24 hours daily,GPS,47.627388,-122.15591,2022-07-25,2022-07-25 01:24:54 UTC,2022-01-20
206424,BLOCK 24 FB STATION 3,12355 NE District Wy,Bellevue,WA,98005,Public,24 hours daily,GPS,47.621188,-122.175998,2022-07-25,2022-07-25 01:20:22 UTC,2022-02-16
206469,EASTGATE 15395 DUAL - #1,15395 SE 30th Pl,Bellevue,WA,98007,Public,24 hours daily,GPS,47.582147,-122.136648,2022-07-25,2022-07-25 00:53:11 UTC,2022-02-17
206470,EASTGATE 15395 DUAL - #2,15395 SE 30th Pl,Bellevue,WA,98007,Public,24 hours daily,GPS,47.582154,-122.136594,2022-07-25,2022-07-25 00:53:35 UTC,2022-02-17
212098,SEA106 SEA106-1,10550 NE 10th St,Bellevue,WA,98004,Public,24 hours daily,GPS,47.618835,-122.19983,2022-07-25,2022-07-25 01:22:55 UTC,2022-03-22
212099,SEA106 SEA106-2,10550 NE 10th St,Bellevue,WA,98004,Public,24 hours daily,GPS,47.618866,-122.199814,2022-07-25,2022-07-25 01:22:55 UTC,2022-03-22
212209,SEA106 SEA106-5,10550 NE 10th St,Bellevue,WA,98004,Public,24 hours daily,GPS,47.618844,-122.199776,2022-07-25,2022-07-25 01:22:55 UTC,2022-03-23
212673,Spirit Wood Manor,1424 148th Ave SE,Bellevue,WA,98007,Public,MON: 24 hours | TUE: 24 hours | WED: 24 hours | THU: 24 hours | FRI: 24 hours | SAT: 24 hours | SUN: 24 hours,GPS,47.5976,-122.142,2022-07-24,2022-07-24 22:55:19 UTC,2022-03-24
213389,BELLEVUE SQUARE BELL SQ WEST #2,2088 Bellevue Square,Bellevue,WA,98004,Public,24 hours daily,GPS,47.616037,-122.205528,2022-07-25,2022-07-25 01:02:03 UTC,2022-04-04
221023,531631 - HQ Building 2 - P2,3655 131st Avenue Southeast,Bellevue,WA,98006,Public,MO: Not Specified; TU: Not Specified; WE: Not Specified; TH: Not Specified; FR: Not Specified; SA: Not Specified; SU: Not Specified,GPS,47.57865585,-122.1665252,2022-07-25,2022-07-25 00:31:01 UTC,2022-06-10
221426,OBC STATION 1,411 108th Ave NE,Bellevue,WA,98004,Public,24 hours daily,GPS,47.614112,-122.196978,2022-07-25,2022-07-25 00:41:07 UTC,2022-06-17
222378,The Meyden,10333 Main Street,Bellevue,WA,98004,Public,MO: Not Specified; TU: Not Specified; WE: Not Specified; TH: Not Specified; FR: Not Specified; SA: Not Specified; SU: Not Specified,GPS,47.6098443,-122.2024273,2022-07-25,2022-07-25 00:31:01 UTC,2022-07-01
222417,Fred Meyer Bellevue #23,2041 148th Ave NE,Bellevue,WA,98007,Public,24 hours daily,GPS,47.6288614,-122.1445578,2022-07-25,2022-07-25 01:29:22 UTC,2022-07-01
39778,Bellingham Nissan,1516 Iowa St,Bellingham,WA,98229,Public - Call ahead,Dealership business hours,200-9,48.755607,-122.454132,2020-06-09,2021-03-11 23:22:17 UTC,2011-03-15
62692,Best Western Plus - Heritage Inn,151 E McLeod Rd,Bellingham,WA,98226,Public,24 hours daily; for guest use only,GPS,48.783478,-122.484131,2020-07-13,2022-06-30 22:10:16 UTC,2014-03-21
65862,Bellingham - Sehome Village,222 36th St,Bellingham,WA,98325,Public,24 hours daily,200-9,48.73116,-122.47119,2022-07-25,2022-07-25 01:28:45 UTC,2012-05-31
80022,GARAGE COMMERCIAL ST 2,1300 Commercial St,Bellingham,WA,98225,Public,24 hours daily,GPS,48.750857,-122.479518,2022-07-25,2022-07-25 00:48:18 UTC,2016-12-01
97018,BARKLEY VILLAGE REGAL CINEMA 2,3011 Cinema Pl,Bellingham,WA,98226,Public,24 hours daily,GPS,48.7707,-122.448772,2022-07-25,2022-07-25 00:56:41 UTC,2018-05-11
116079,Hotel Bellwether - Tesla Destination,1 Bellwether Way,Bellingham,WA,98225,Public,24 hours daily; for customer use only; see front desk for access,200-9,48.754134,-122.497055,2020-11-03,2021-03-11 23:22:17 UTC,2016-04-01
116080,Best Western Plus Heritage Inn - Tesla Destination,151 McLeod Rd,Bellingham,WA,98226,Public,24 hours daily; for customer use only,GPS,48.783141,-122.484001,2020-11-03,2021-03-11 23:22:17 UTC,2014-03-21
116081,Oxford Suites Bellingham - Tesla Destination,4051  Meridian St,Bellingham,WA,98226,Public,24 hours daily; for customer use only; see front desk for access,200-9,48.788433,-122.487733,2020-11-03,2021-03-11 23:22:17 UTC,2016-04-01
121382,INTEGRAND TROVE,218 N Samish Way,Bellingham,WA,98225,Public,24 hours daily,GPS,48.738079,-122.469392,2022-07-25,2022-07-25 01:01:27 UTC,2019-04-13
147667,CFC Holly ST Lot,1220 North Forest Street,Bellingham,WA,98225,Public,MO: Not Specified; TU: Not Specified; WE: Not Specified; TH: Not Specified; FR: Not Specified; SA: Not Specified; SU: Not Specified,GPS,48.7472802,-122.4762196,2022-07-25,2022-07-25 00:31:01 UTC,2016-11-02
149119,SEHOME HS SEHOME HIGH #1,2700 Bill McDonald Pkwy,Bellingham,WA,98225,Public,24 hours daily,GPS,48.727512,-122.48124,2022-07-25,2022-07-25 01:05:28 UTC,2019-11-13
164392,GARAGE SOUTH LOT,1100 Railroad Ave,Bellingham,WA,98225,Public,24 hours daily,GPS,48.747287,-122.480701,2022-07-25,2022-07-25 01:11:28 UTC,2020-07-21
167930,Bellis Fair,1 Bellis Fair Pkwy,Bellingham,WA,98226,Public,6am-12am daily,GPS,48.784985,-122.488908,2021-04-08,2022-02-10 19:42:29 UTC,2020-10-19
168088,"Fred Meyer 667 (Bellingham, WA)",1225 W Bakerview Rd,Bellingham,WA,98226,Public,24 hours daily,GPS,48.789282,-122.512304,2022-07-25,2022-07-25 01:35:57 UTC,2020-11-01
170587,Vision Plus,2520 James St,Bellingham,WA,98225,Public,24 hours daily,GPS,48.763595,-122.464329,2021-01-14,2021-08-04 00:01:52 UTC,2020-12-21
170588,Bellingham International Airport,4255 Mitchell Way,Bellingham,WA,98226,Public - Credit card at all times,24 hours daily,GPS,48.795524,-122.531874,2021-01-14,2021-08-04 00:01:52 UTC,2020-12-21
171199,BARKLEY VILLAGE CORNERSTONE 1,Cornerstone Ln,Bellingham,WA,98226,Public,24 hours daily,GPS,48.772296,-122.443265,2022-07-25,2022-07-25 00:56:36 UTC,2021-01-08
172343,GARAGE COMMERCIAL ST 1,1300 Commercial St,Bellingham,WA,98225,Public,24 hours daily,GPS,48.750815,-122.47958,2022-07-25,2022-07-25 00:47:58 UTC,2021-01-27
174676,SEHOME HS SEHOME HIGH #2,2700 Bill McDonald Pkwy,Bellingham,WA,98225,Public,24 hours daily,GPS,48.72757,-122.48128,2022-07-25,2022-07-25 01:05:01 UTC,2021-01-27
191948,Whole Foods Bellingham,1030 Lakeway Dr,Bellingham,WA,98229,Public,24 hours daily,GPS,48.74393,-122.461854,2022-07-25,2022-07-25 01:29:33 UTC,2021-07-04
194653,1217 STATE SATURNA 01,1217 N State St,Bellingham,WA,98225,Public,24 hours daily,GPS,48.747824,-122.478347,2022-07-25,2022-07-25 01:20:25 UTC,2021-08-29
195281,Railroad Avenue South Lot,1100 Railroad Avenue,Bellingham,WA,98225,Public,MO: Not Specified; TU: Not Specified; WE: Not Specified; TH: Not Specified; FR: Not Specified; SA: Not Specified; SU: Not Specified,GPS,48.7470747,-122.4807487,2022-07-25,2022-07-25 00:31:01 UTC,2021-09-06
201933,Bellis Fair,1 Bellis Fair Pkwy,Bellingham,WA,98226,Public - Credit card at all times,9am-3am daily,GPS,48.78546044,-122.4883478,2022-05-05,2022-05-05 20:22:04 UTC,2021-11-26
202101,Community Food CoOp,315 Weterly Rd,Bellingham,WA,98226,Public,24 hours daily,GPS,48.791491,-122.492374,2022-07-25,2022-07-25 01:33:32 UTC,2021-12-07
212639,Interdisc Science Lot 9G,516 High Street,Bellingham,WA,98225,Public,24 hours daily,GPS,48.73423,-122.48795,2022-07-25,2022-07-25 01:33:44 UTC,2022-03-24
219789,Chuckanut Builders,1000 N State St,Bellingham,WA,98225,Public,24 hours daily,GPS,48.745308,-122.481071,2022-07-25,2022-07-25 01:33:38 UTC,2022-05-25
220470,"Bellingham 1, LLP",4040 Northwest Avenue,Bellingham,WA,98226,Public,MO: Not Specified; TU: Not Specified; WE: Not Specified; TH: Not Specified; FR: Not Specified; SA: Not Specified; SU: Not Specified,GPS,48.7885917,-122.5060156,2022-07-25,2022-07-25 00:31:01 UTC,2022-06-03
220472,Western Washington University,516 High Street (MS9114),Bellingham,WA,98225,Public,MO: Not Specified; TU: Not Specified; WE: Not Specified; TH: Not Specified; FR: Not Specified; SA: Not Specified; SU: Not Specified,GPS,48.7391984,-122.4851568,2022-07-25,2022-07-25 00:31:01 UTC,2022-06-03
222416,Haggen's Bellingham #3449,210 36th St,Bellingham,WA,98225,Public,24 hours daily,GPS,48.7330226,-122.4714375,2022-07-25,2022-07-25 01:29:20 UTC,2022-07-01
116082,Hamilton Cellars - Tesla Destination,55410 N Sunset Rd,Benton City,WA,99320,Public,24 hours daily,200-8,46.293791,-119.451533,2020-11-03,2021-03-11 23:22:17 UTC,2015-11-01
190911,The Society Hotel,210 N Cedar St,Bingen,WA,98605,Public,24 hours daily; for customer use only,GPS,45.714228,-121.461813,2021-07-14,2022-04-28 20:01:31 UTC,2021-06-01
62286,Semiahmoo Resort,9565 Semiahmoo Pkwy,Blaine,WA,98230,Public,24 hours daily; for guest use only,GPS,48.989751,-122.773271,2021-11-04,2022-04-28 20:01:31 UTC,2014-04-01
116083,Semiahmoo Resort & Spa - Tesla Destination,9565 Semiahmoo Pkwy,Blaine,WA,98230,Public,24 hours daily; for customer use only,200-9,48.990492,-122.774463,2020-11-03,2021-03-11 23:22:17 UTC,2014-04-01
153456,Birch Bay Square - Tesla Supercharger,8115 Birch Bay Square,Blaine,WA,98230,Public,24 hours daily; for Tesla use only,GPS,48.937845,-122.667679,2021-10-11,2021-11-04 18:37:47 UTC,2020-01-31
164278,BLAINE STATION 1,639-699 Peace Portal Dr,Blaine,WA,98230,Public,24 hours daily,GPS,48.995255,-122.75184,2022-07-25,2022-07-25 01:11:16 UTC,2020-07-16
203044,Bonney Lake Village Center Shopping Center,21301 Highway 410,Bonney Lake,WA,98391,Public - Credit card at all times,24 hours daily,GPS,47.1665599,-122.1452964,2022-01-10,2022-02-10 19:42:29 UTC,2021-12-21
38952,UWB CASCADIA CC NORTH LEVEL 3 N,18500 Campus Way NE,Bothell,WA,98011,Public,24 hours daily,GPS,47.761878,-122.191915,2022-07-25,2022-07-25 00:53:07 UTC,2011-03-15
70092,UWB CASCADIA CC TRULY HOUSE #1,18140 Campus Way NE,Bothell,WA,98011,Public,24 hours daily,GPS,47.759501,-122.193075,2022-07-25,2022-07-25 00:46:59 UTC,2015-09-29
70095,UWB CASCADIA CC SOUTH L 3 N,11237-11299 NE 180th St,Bothell,WA,98011,Public,24 hours daily,GPS,47.757842,-122.190719,2022-07-25,2022-07-25 00:45:29 UTC,2015-09-29
74717,UWB CASCADIA CC BEARDSLEE #1,19121 112th Ave NE,Bothell,WA,98011,Public,24 hours daily,GPS,47.766921,-122.191941,2022-07-25,2022-07-25 00:46:23 UTC,2016-04-06
86225,UWB CASCADIA CC SOUTH LEVEL 3 W,South Parking GarageCampus Way NE,Bothell,WA,98011,Public,24 hours daily,GPS,47.757838,-122.190947,2022-07-25,2022-07-25 00:52:35 UTC,2017-08-03
99405,UWB CASCADIA CC SOUTH LEVEL 4 S,Campus Way NE,Bothell,WA,98011,Public,24 hours daily,GPS,47.757824,-122.190681,2022-07-25,2022-07-25 00:54:49 UTC,2018-06-22
123157,Parklands North Creek - Building Q,19910 North Creek Pkwy,Bothell,WA,98011,Public,24 hours daily,GPS,47.77301,-122.18555,2020-07-13,2021-03-11 23:22:17 UTC,2019-04-01
147690,Monte Villa,3830 Monte Villa Parkway,Bothell,WA,98021,Public,MO: Not Specified; TU: Not Specified; WE: Not Specified; TH: Not Specified; FR: Not Specified; SA: Not Specified; SU: Not Specified,GPS,47.776781,-122.181535,2022-07-25,2022-07-25 00:31:01 UTC,2014-04-03
149281,"Fred Meyer 457 - Bothell, WA",21045 Bothell Everett Hwy.,Bothell,WA,98021,Public,24 hours daily,GPS,47.80832,-122.20711,2022-07-25,2022-07-25 01:35:37 UTC,2019-11-20
164168,Village at Beardslee Crossing - Tesla Supercharger,19128 112th Avenue NE,Bothell,WA,98011,Public,24 hours daily; for Tesla use only,GPS,47.767687,-122.191482,2021-10-11,2021-11-04 18:37:47 UTC,2020-07-10
167931,Safeway #535,20711 Bothell Hwy,Bothell,WA,98012,Public,6am-12am daily,GPS,47.81004,-122.206015,2022-05-05,2022-05-05 20:22:04 UTC,2020-10-19
171751,UWB CASCADIA CC SOUTH LEVEL 3 E,18140 Campus Way NE,Bothell,WA,98011,Public,24 hours daily,GPS,47.75772,-122.190801,2022-07-25,2022-07-25 00:41:34 UTC,2021-01-27
172934,UWB CASCADIA CC NORTH LEVEL 3 S,18500 Campus Way NE,Bothell,WA,98011,Public,24 hours daily,GPS,47.761846,-122.191872,2022-07-25,2022-07-25 00:52:35 UTC,2021-01-27
173267,UWB CASCADIA CC SOUTH LEVEL 4 N,Campus Way NE,Bothell,WA,98011,Public,24 hours daily,GPS,47.757748,-122.19073,2022-07-25,2022-07-25 00:54:49 UTC,2021-01-27
192927,LuSBP,11804 North Creek Parkway South,Bothell,WA,98011,Public,MO: Not Specified; TU: Not Specified; WE: Not Specified; TH: Not Specified; FR: Not Specified; SA: Not Specified; SU: Not Specified,GPS,47.7634842,-122.1813697,2022-07-25,2022-07-25 00:31:01 UTC,2021-07-17
193876,UWB CASCADIA CC WEST LEVEL 2 N,18231 110th Ave NE,Bothell,WA,98011,Public,24 hours daily,GPS,47.75969,-122.193886,2022-07-25,2022-07-25 01:14:16 UTC,2021-08-14
193877,UWB CASCADIA CC WEST LEVEL 4 W,18231 110th Ave NE,Bothell,WA,98011,Public,24 hours daily,GPS,47.759644,-122.1939,2022-07-25,2022-07-25 01:14:16 UTC,2021-08-14
193878,UWB CASCADIA CC WEST LEVEL 2E,18231 110th Ave NE,Bothell,WA,98011,Public,24 hours daily,GPS,47.75966,-122.19387,2022-07-25,2022-07-25 01:14:17 UTC,2021-08-14
193879,UWB CASCADIA CC WEST LEVEL 1 W,18231 110th Ave NE,Bothell,WA,98011,Public,24 hours daily,GPS,47.759647,-122.193886,2022-07-25,2022-07-25 01:14:17 UTC,2021-08-14
193880,UWB CASCADIA CC WEST LEVEL 3 E,18231 110th Ave NE,Bothell,WA,98011,Public,24 hours daily,GPS,47.75966,-122.19386,2022-07-25,2022-07-25 01:14:17 UTC,2021-08-14
193881,UWB CASCADIA CC WEST LEVEL 2 W,18231 110th Ave NE,Bothell,WA,98011,Public,24 hours daily,GPS,47.75964,-122.19391,2022-07-25,2022-07-25 01:14:18 UTC,2021-08-14
193929,UWB CASCADIA CC WEST LEVEL 1 E,18231 110th Ave NE,Bothell,WA,98011,Public,24 hours daily,GPS,47.759598,-122.193902,2022-07-25,2022-07-25 01:14:16 UTC,2021-08-15
195115,"Walgreens - Bothell, WA #6614",20812 Bothell-Everett Hwy,Bothell,WA,98201,Public,MO: Not Specified; TU: Not Specified; WE: Not Specified; TH: Not Specified; FR: Not Specified; SA: Not Specified; SU: Not Specified,GPS,47.808371,-122.208706,2022-07-25,2022-07-25 00:31:01 UTC,2021-09-05
195495,Canyon Park Office Center,22232 17th Avenue Southeast,Bothell,WA,98021,Public,MO: Not Specified; TU: Not Specified; WE: Not Specified; TH: Not Specified; FR: Not Specified; SA: Not Specified; SU: Not Specified,GPS,47.7953945,-122.2116571,2022-07-25,2022-07-25 00:31:01 UTC,2021-09-07
39779,Advantage Nissan,5101 Auto Center Blvd,Bremerton,WA,98312,Public - Call ahead,Dealership business hours,200-9,47.562162,-122.684286,2020-06-09,2021-03-11 23:22:17 UTC,2011-03-15
41668,Naval Base Kitsap - Bremerton,1400 Farragut Ave,Bremerton,WA,98314,Private - Government only,Private,GPS,47.561819,-122.647197,2022-07-12,2022-07-12 20:31:42 UTC,2011-03-15
41749,Naval Base Kitsap - Bremerton,1400 Farragut Ave,Bremerton,WA,98314,Private - Government only,Private,GPS,47.561819,-122.647197,2022-07-12,2022-07-12 20:31:42 UTC,2011-03-15
44270,Advantage Nissan,5101 Auto Center Blvd,Bremerton,WA,98312,Private,Private,200-9,47.562162,-122.684286,2020-06-09,2021-03-11 23:22:17 UTC,2011-03-15
60718,Haselwood Chevrolet Buick GMC,501 W Hills Blvd,Bremerton,WA,98312,Public,Dealership business hours; for Chevrolet vehicles only,200-9,47.557801,-122.675335,2021-12-09,2022-04-28 20:01:31 UTC,2014-01-01
61877,Kitsap Transit WA Harborside Parking Garage,60 Washington Ave,Bremerton,WA,98337,Public,Private,GPS,47.563581,-122.625317,2022-07-25,2022-07-25 02:00:21 UTC,2013-12-31
77670,NBK Bremerton / N68436-B107-1,Burwell at Park Ave,Bremerton,WA,98314,Private - Government only,Private,200-8,47.56415,-122.630287,2021-02-22,2021-03-11 23:22:17 UTC,2016-08-15
77671,NBK Bremerton / N68436-B850A,1402 Farragut Ave,Bremerton,WA,98314,Private - Government only,Private,200-8,47.5501,-122.6401,2021-02-22,2021-03-11 23:22:17 UTC,2016-08-15
85477,Kitsap Transit Charleston Blvd,200 Charleston Blvd,Bremerton,WA,98312,Public,Private,GPS,47.561388,-122.654166,2022-07-25,2022-07-25 02:00:29 UTC,2017-05-01
95250,Olympic College,1600 Chester Ave,Bremerton,WA,98337,Private,MON: 24 hours | TUE: 24 hours | WED: 24 hours | THU: 24 hours | FRI: 24 hours | SAT: 24 hours | SUN: 24 hours,GPS,47.575355,-122.634233,2022-07-24,2022-07-24 22:55:19 UTC,2012-05-31
123712,Waste Management - Brem Air,9300 SW Barney White Rd,Bremerton,WA,98312,Private,Private,200-9,47.50358,-122.774732,2022-06-14,2022-06-14 16:22:47 UTC,2015-12-31
158635,Kitsap Transit - Harborside Parking Garage,100 Washinton Ave,Bremerton,WA,98337,Public,24 hours daily,GPS,47.563883,-122.624526,2020-07-13,2022-07-18 04:19:09 UTC,2020-06-05
163967,"Bremerton Department of Children, Youth, and Families",4210 Wheaton Way,Bremerton,WA,98335,Public - Credit card at all times,24 hours daily,GPS,47.603645,-122.627873,2020-07-13,2021-03-11 23:22:17 UTC,2020-06-26
168187,Kitsap Transit - Wheaton Way Transit Center,3915 Wheaton Way,Bremerton,WA,98310,Public,Private,GPS,47.600278,-122.630556,2022-07-25,2022-07-25 02:00:33 UTC,2020-11-06
184349,NBK Bremerton / N68436-B495-1,1499 Decatur Ave,Bremerton,WA,98337,Private - Government only,Private,GPS,47.560795,-122.628517,2021-02-22,2021-08-04 00:01:52 UTC,2021-01-15
184350,NBK Bremerton / N68436-B78-1,1491 Decatur Ave,Bremerton,WA,98337,Private - Government only,Private,GPS,47.563038,-122.631837,2021-02-22,2021-08-04 00:01:52 UTC,2021-01-15
184351,NBK Bremerton / N68436-B460-1,2158 1st St,Bremerton,WA,98312,Private - Government only,Private,GPS,47.563419,-122.647057,2021-02-22,2021-08-04 00:01:52 UTC,2021-01-15
184668,NBK Bremerton / N68436-B427-1,1492 Decatur Ave,Bremerton,WA,98337,Private - Government only,Drivers must bring their own J1772 cordset for Level 1 charging,GPS,47.563848,-122.632873,2021-02-22,2022-02-10 21:00:18 UTC,2021-01-15
184669,NBK Bremerton / N68436-B433-1,433 Barclay St,Bremerton,WA,98337,Private - Government only,Drivers must bring their own J1772 cordset for Level 1 charging,GPS,47.559929,-122.650764,2021-02-22,2022-02-10 21:00:18 UTC,2021-01-15
195126,"Walgreens - Bremerton, WA #5912",3333 Wheaton Way,Bremerton,WA,98310,Public,MO: Not Specified; TU: Not Specified; WE: Not Specified; TH: Not Specified; FR: Not Specified; SA: Not Specified; SU: Not Specified,GPS,47.5944743,-122.6294686,2022-07-25,2022-07-25 00:31:01 UTC,2021-09-05
204828,Safeway,1401 NE McWilliams Rd,Bremerton,WA,98311,Public - Credit card at all times,9am-3am daily,GPS,47.62079474,-122.6302244,2022-02-10,2022-02-10 19:42:29 UTC,2022-01-11
82396,City of Bridgeport - City Hall,1206 Columbia Ave,Bridgeport,WA,98813,Public,24 hours daily,GPS,48.009356,-119.672953,2021-12-09,2022-02-10 19:42:29 UTC,2017-04-01
39780,Burien Nissan,16042 1st Ave S,Burien,WA,98148,Public - Call ahead,Dealership business hours,200-9,47.458466,-122.333257,2022-02-10,2022-02-10 19:42:29 UTC,2011-03-15
44272,Burien Nissan,16042 1st Ave S,Burien,WA,98148,Private,Private,200-9,47.458466,-122.333257,2022-02-10,2022-02-10 19:42:29 UTC,2011-03-15
67584,U-Haul,13645 1st Ave S,Burien,WA,98168,Public,"7am-7pm M-Th and Sat, 7am-8pm F, 9am-5pm Sun",200-8,47.480896,-122.333834,2021-06-07,2022-02-22 14:31:10 UTC,2015-06-01
73197,KING COUNTY DOT BURIEN P&R #5,14900 4th Ave SW,Burien,WA,98166,Public,24 hours daily,GPS,47.469258,-122.338762,2022-07-25,2022-07-25 00:46:49 UTC,2016-01-28
79752,KING COUNTY DOT BURIEN P&R #8,14901 4th Ave SW,Burien,WA,98166,Public,24 hours daily,GPS,47.469303,-122.338464,2022-07-25,2022-07-25 00:46:49 UTC,2016-11-16
151861,Walgreens #3840,14656 Ambaum Blvd SW,Burien,WA,98166,Public,6am-12am daily,GPS,47.470555,-122.346554,2022-05-05,2022-05-05 20:22:04 UTC,2019-11-01
172047,KING COUNTY DOT BURIEN P&R #9,14901 4th Ave SW,Burien,WA,98166,Public,24 hours daily,GPS,47.469325,-122.338429,2022-07-25,2022-07-25 00:46:48 UTC,2021-01-27
172048,KING COUNTY DOT BURIEN P&R #10,14901 4th Ave SW,Burien,WA,98166,Public,24 hours daily,GPS,47.469332,-122.338185,2022-07-25,2022-07-25 00:46:48 UTC,2021-01-27
172644,KING COUNTY DOT BURIEN P&R #2,14900 4th Ave SW,Burien,WA,98166,Public,24 hours daily,GPS,47.469359,-122.33877,2022-07-25,2022-07-25 00:46:49 UTC,2021-01-27
172645,KING COUNTY DOT BURIEN P&R #6,14900 4th Ave SW,Burien,WA,98166,Public,24 hours daily,GPS,47.469241,-122.338631,2022-07-25,2022-07-25 00:46:49 UTC,2021-01-27
172646,KING COUNTY DOT BURIEN P&R #7,14900 4th Ave SW,Burien,WA,98166,Public,24 hours daily,GPS,47.469306,-122.338604,2022-07-25,2022-07-25 00:46:49 UTC,2021-01-27
172647,KING COUNTY DOT BURIEN P&R #4,14900 4th Ave SW,Burien,WA,98166,Public,24 hours daily,GPS,47.469296,-122.33873,2022-07-25,2022-07-25 00:46:48 UTC,2021-01-27
172648,KING COUNTY DOT BURIEN P&R #3,14900 4th Ave SW,Burien,WA,98166,Public,24 hours daily,GPS,47.469348,-122.338746,2022-07-25,2022-07-25 00:46:48 UTC,2021-01-27
172649,KING COUNTY DOT BURIEN P&R #1,14900 4th Ave SW,Burien,WA,98166,Public,24 hours daily,GPS,47.469421,-122.338757,2022-07-25,2022-07-25 00:46:32 UTC,2021-01-27
199383,CITY LIGHT BURIEN LIBRARY,15135 4th Ave SW,Burien,WA,98166,Public,24 hours daily,GPS,47.467371,-122.33941,2022-07-25,2022-07-25 01:22:45 UTC,2021-10-28
14842,Burlington Country Store,1276 S Burlington Blvd,Burlington,WA,98233,Public,"8am-7pm M-F, 8am-6pm Sat, 9am-5pm Sun",200-9,48.461001,-122.335019,2022-07-12,2022-07-12 20:31:42 UTC,1999-07-08
65865,Burlington - The Outlet Shoppes,448 Fashion Way,Burlington,WA,98233,Public,24 hours daily,200-8,48.457448,-122.335866,2022-07-25,2022-07-25 01:28:45 UTC,2012-05-31
71013,Alliance AutoGas - Vanderyacht Propane,1636 Walton Dr,Burlington,WA,98233,Public - Card key at all times,24 hour access with Alliance AutoGas card (self-service),200-9,48.488786,-122.333177,2022-03-07,2022-06-22 19:01:00 UTC,1999-11-06
102485,Fairfield Inn & Suites Burlington - Tesla Supercharger,9384 Old Highway 99 North,Burlington,WA,98233,Public,24 hours daily; for Tesla use only,200-8,48.509743,-122.338681,2021-10-11,2021-11-04 18:37:47 UTC,2013-06-01
123729,Waste Management - Skagit,12122 Bay Ridge Dr,Burlington,WA,98233,Private,Private,200-9,48.469773,-122.404717,2022-06-14,2022-06-14 16:22:47 UTC,2019-01-10
170584,Comfort Suites Burlington Near I-5,500 E George Hoppeer Rd,Burlington,WA,98233,Public,24 hours daily; guest use only; see front desk for access,GPS,48.451871,-122.329766,2021-01-14,2022-04-28 20:01:31 UTC,2020-12-21
195545,La Quinta Burlington,1670 S. Burlington Blvd,Burlington,WA,98233,Public,MO: Not Specified; TU: Not Specified; WE: Not Specified; TH: Not Specified; FR: Not Specified; SA: Not Specified; SU: Not Specified,GPS,48.454081,-122.334149,2022-07-25,2022-07-25 00:31:01 UTC,2021-09-08
150547,Windermere Camano Island - Tesla Destination,818 N Sunrise Blvd,Camano,WA,98282,Public,24 hours daily,200-9,48.240482,-122.45554,2020-11-03,2021-03-11 23:22:17 UTC,2019-09-30
191644,Camas Bike and Sport/ IQ ATM,403 Northeast 5th Avenue,Camas,WA,98607,Public,MO: Not Specified; TU: Not Specified; WE: Not Specified; TH: Not Specified; FR: Not Specified; SA: Not Specified; SU: Not Specified,GPS,45.5867216,-122.4047329,2022-07-25,2022-07-25 00:31:01 UTC,2021-07-01
195386,192nd West Lofts,2220 Southeast 192nd Avenue,Camas,WA,98607,Public,MO: Not Specified; TU: Not Specified; WE: Not Specified; TH: Not Specified; FR: Not Specified; SA: Not Specified; SU: Not Specified,GPS,45.6040109,-122.4757978,2022-07-25,2022-07-25 00:31:01 UTC,2021-09-06
200636,KIELO KIELO 2,5988 NW 38th Ave,Camas,WA,98607,Public,24 hours daily,GPS,45.606403,-122.471468,2022-07-25,2022-07-25 01:14:13 UTC,2021-11-06
116084,Carson Ridge Luxury Cabins - Tesla Destination,1261 Wind River Rd,Carson,WA,98610,Public,24 hours daily; for customer use only; see front desk for access,200-9,45.729351,-121.821302,2020-11-03,2021-03-11 23:22:17 UTC,2016-06-01
65864,Castle Rock - Cascade Select Market,204 W. Cowlitz Street,Castle Rock,WA,98611,Public,24 hours daily,200-9,46.276122,-122.910167,2022-07-25,2022-07-25 01:28:45 UTC,2012-08-09
116085,Hotel Cathlamet - Tesla Destination,69 Main St,Cathlamet,WA,98612,Public - Call ahead,24 hours daily; for customer use only,200-9,46.20249,-123.3842,2020-11-03,2021-03-11 23:22:17 UTC,2018-10-01
195256,Hotel Cathlamet Rear Parking Lot,69 Main Street,Cathlamet,WA,98612,Public,MO: Not Specified; TU: Not Specified; WE: Not Specified; TH: Not Specified; FR: Not Specified; SA: Not Specified; SU: Not Specified,GPS,46.2025755,-123.3841695,2022-07-25,2022-07-25 00:31:01 UTC,2021-09-05
65861,Centralia - Wendy's,817 Harrison Avenue,Centralia,WA,98531,Public,24 hours daily,200-9,46.725269,-122.974272,2022-07-25,2022-07-25 01:28:45 UTC,2012-05-31
102486,Centralia Outlets - Tesla Supercharger,1200 Lum Rd,Centralia,WA,98531,Public,24 hours daily; for Tesla use only,200-9,46.729872,-122.977392,2021-10-11,2021-11-04 18:37:47 UTC,2013-06-01
191438,TWIN TRANSIT MELLEN ST. 1,12 Airport Rd,Centralia,WA,98531,Public,24 hours daily,GPS,46.711331,-122.976491,2022-07-25,2022-07-25 01:19:14 UTC,2021-06-24
191439,TWIN TRANSIT MELLEN ST. 2,12 Airport Rd,Centralia,WA,98531,Public,24 hours daily,GPS,46.711291,-122.976524,2022-07-25,2022-07-25 01:19:14 UTC,2021-06-24
219891,Providence - Centralia Hospital,914 S Scheuber Road,Centralia,WA,98531,Public,MON: 24 hours | TUE: 24 hours | WED: 24 hours | THU: 24 hours | FRI: 24 hours | SAT: 24 hours | SUN: 24 hours,GPS,47.069827,-122.773312,2022-07-24,2022-07-24 22:55:19 UTC,2022-05-26
198398,Chehalis Commerce District,1701 NW Louisiana Ave,Chehalis,WA,98532,Public,24 hours daily,GPS,46.6798738,-122.9771577,2022-07-25,2022-07-25 01:29:35 UTC,2021-10-25
60003,Campbell's Lake Chelan Resort,104 W Woodin Ave,Chelan,WA,98816,Public,24 hours daily; for guest use only,200-9,47.8399,-120.0199,2021-12-09,2022-02-10 21:00:18 UTC,2013-10-04
62973,City of Chelan,137 E Johnson Ave,Chelan,WA,98816,Public,24 hours daily,200-8,47.840838,-120.018402,2021-12-09,2022-02-10 19:42:29 UTC,2014-08-18
64500,Mellisoni Vineyard,3155 US 97A,Chelan,WA,98816,Public,24 hours daily; Drivers must bring their own J1772 cordset for Level 1 charging,GPS,47.83522282,-120.0689834,2021-12-09,2022-02-10 21:00:18 UTC,2014-11-29
116086,Fielding Hills Winery - Tesla Destination,565 S Lakeshore Dr,Chelan,WA,98816,Public - Call ahead,24 hours daily; for customer use only,200-9,47.842235,-120.098116,2020-11-03,2021-03-11 23:22:17 UTC,2018-11-01
1202,Avista Clarkston Service Center,1330 Fair St,Clarkston,WA,99403,Private - Card key at all times,Private,200-8,46.421726,-117.060257,2022-05-05,2022-05-05 20:22:04 UTC,1996-11-15
99171,Port of Clarkston,849 Port Way,Clarkston,WA,99403,Public,24 hours daily,200-8,46.425498,-117.04865,2022-07-25,2022-07-25 01:33:54 UTC,2017-05-01
73431,Cle Elum,3600 Suncadia Trail,Cle Elum,WA,98922,Public,24 hours daily,200-9,47.208469,-121.019582,2022-07-25,2022-07-25 01:28:45 UTC,2016-02-09
116087,Suncadia Resort - Tesla Destination,3600 Suncadia Trl,Cle Elum,WA,98922,Public - Call ahead,24 hours daily; for customer use only,200-9,47.208469,-121.019582,2020-11-03,2021-03-11 23:22:17 UTC,2017-09-01
116820,Cle Elum Business Park - Tesla Supercharger,811 WA-970,Cle Elum,WA,98922,Public,24 hours daily; for Tesla use only,200-9,47.189262,-120.902714,2021-10-11,2021-11-04 18:37:47 UTC,2018-12-01
167497,Cle Elum,811 WA-970,Cle Elum,WA,98922,Public,24 hours daily,GPS,47.188833,-120.903139,2022-07-25,2022-07-25 01:32:01 UTC,2020-10-13
195412,City Hall,625 S College Ave,College Place,WA,99324,Public,MO: Not Specified; TU: Not Specified; WE: Not Specified; TH: Not Specified; FR: Not Specified; SA: Not Specified; SU: Not Specified,GPS,46.0427838,-118.3869759,2022-07-25,2022-07-25 00:31:01 UTC,2021-09-07
105123,Colville City Hall,158 E 1st Ave,Colville,WA,99114,Public,24 hours daily,200-9,48.543915,-117.904797,2022-07-25,2022-07-25 01:32:00 UTC,2018-12-06
163521,City of Colville,202 N Main,Colville,WA,99114,Public,24 hours daily,200-9,48.545492,-117.905583,2022-07-25,2022-07-25 01:31:54 UTC,2020-06-20
78783,Town of Concrete - Park and Ride,7503 N Superior,Concrete,WA,98237,Public,24 hours daily,GPS,48.537035,-121.758653,2020-08-05,2021-03-11 23:22:17 UTC,2016-11-01
167523,Connell,303 S Columbia Ave,Connell,WA,99326,Public,24 hours daily,GPS,46.659028,-118.861158,2022-07-25,2022-07-25 01:32:01 UTC,2020-10-14
103924,Seabrook Street Parking,169 Blackberry St,Copalis Crossing,WA,98356,Public,24 hours daily,GPS,47.195359,-124.196082,2022-01-10,2022-02-10 19:42:29 UTC,2014-02-01
60814,Lakeside 24 Hour Fuel,16835 Lewis River Rd,Cougar,WA,98616,Public,6am-9pm daily (summer); 6am-6pm daily (winter),200-9,46.051228,-122.301754,2021-12-09,2022-02-10 19:42:29 UTC,2014-03-06
68846,Banks Lake Brew and Bistro,695 N 2nd St,Coulee City,WA,99115,Public,24 hours daily,GPS,47.616684,-119.287843,2021-12-09,2022-02-10 19:42:29 UTC,2015-08-03
222076,COUPEVILLE COUPEVILLE #1,802 NW Alexander St,Coupeville,WA,98239,Public,24 hours daily,GPS,48.219574,-122.689582,2022-07-25,2022-07-25 01:28:22 UTC,2022-06-28
96971,Multicare Health Systems,17700 SE 272nd Street,Covington,WA,98042,Private,MON: 24 hours | TUE: 24 hours | WED: 24 hours | THU: 24 hours | FRI: 24 hours | SAT: 24 hours | SUN: 24 hours,GPS,47.359935,-122.103668,2022-07-24,2022-07-24 22:55:19 UTC,2018-05-10
124057,"Walmart 5073 - Covington, WA",17432 SE 270th PL,Covington,WA,98042,Public,24 hours daily,GPS,47.360982,-122.110209,2022-07-25,2022-07-25 01:35:32 UTC,2019-06-19
151860,Walgreens #7908,27130 172nd Ave SE,Covington,WA,98042,Public,8am-10pm daily,GPS,47.358497,-122.112065,2022-05-05,2022-05-05 20:22:04 UTC,2019-11-01
201538,Covington Public,18631 SE 300th Pl,Covington,WA,98042,Public,24 hours daily,GPS,47.331977,-122.093326,2022-07-25,2022-07-25 01:33:22 UTC,2021-11-23
65868,I-5 Custer SB Rest Area,3063 Creasy Rd,Custer,WA,98240,Public,24 hours daily,200-8,48.927904,-122.648343,2022-07-25,2022-07-25 01:28:45 UTC,2012-05-31
81083,Lincoln County Museum,600 7th St,Davenport,WA,99122,Public,24 hours daily,GPS,47.652922,-118.150361,2021-12-09,2022-02-10 19:42:29 UTC,2016-10-01
122580,Blue Mountain Station - Tesla Destination,700 Artisan Wy,Dayton,WA,99328,Public,24 hours daily,GPS,46.31017,-117.99763,2020-11-03,2021-03-11 23:22:17 UTC,2019-03-01
170911,Dayton,120 N 1st St,Dayton,WA,99328,Public,24 hours daily,200-9,46.320465,-117.98068,2022-07-25,2022-07-25 01:33:08 UTC,2021-01-05
190277,Weinhard Hotel,235 E Main St,Dayton,WA,99328,Public - Credit card at all times,24 hours daily; Also accepts PayPal,200-9,46.32018,-117.97996,2021-06-07,2021-12-06 18:36:15 UTC,2021-03-16
96972,Highline Community College,2400 S 240th St,Des Moines,WA,98198,Public,MON: 24 hours | TUE: 24 hours | WED: 24 hours | THU: 24 hours | FRI: 24 hours | SAT: 24 hours | SUN: 24 hours,GPS,47.389484,-122.301609,2022-07-24,2022-07-24 22:55:19 UTC,2018-05-10
116088,The Four Points by Sheraton Seattle Airport South - Tesla Destination,22406 Pacific Highway S,Des Moines,WA,98198,Public,24 hours daily; for customer use only; see front desk for access,200-9,47.400631,-122.296989,2020-11-03,2021-03-11 23:22:17 UTC,2016-01-01
147785,"Walgreens - Des Moines, WA #9423",23003 Pacific Highway South,Des Moines,WA,98198,Public,MO: 12:00am-12:00am; TU: 12:00am-12:00am; WE: 12:00am-12:00am; TH: 12:00am-12:00am; FR: 12:00am-12:00am; SA: 12:00am-12:00am; SU: 12:00am-12:00am,GPS,47.3951507,-122.2953153,2022-07-25,2022-07-25 00:31:01 UTC,2015-08-17
166717,Safeway #3540,21401 Pacific Hwy S,Des Moines,WA,98198,Public,6am-12am daily,GPS,47.410098,-122.298891,2022-05-05,2022-05-05 20:22:04 UTC,2020-08-31
184352,FAA - Regional Office Building (ANM),2200 S 216th St,Des Moines,WA,98198,Private - Government only,Private,GPS,47.409788,-122.305105,2021-02-22,2021-08-04 00:01:52 UTC,2021-01-15
147809,DuPont Grocery Inc.,100 Barksdale Avenue,Dupont,WA,98327,Public,MO: Not Specified; TU: Not Specified; WE: Not Specified; TH: Not Specified; FR: Not Specified; SA: Not Specified; SU: Not Specified,GPS,47.093942,-122.6260623,2022-07-25,2022-07-25 00:31:01 UTC,2018-05-22
147810,Dupont Family Dentistry,975 Ross Avenue,Dupont,WA,98327,Public,MO: Not Specified; TU: Not Specified; WE: Not Specified; TH: Not Specified; FR: Not Specified; SA: Not Specified; SU: Not Specified,GPS,47.0920691,-122.6422247,2022-07-25,2022-07-25 00:31:01 UTC,2019-07-04
198475,Dupont Center - Ace Hardware,1585 McNeil St,Dupont,WA,98327,Public,24 hours daily,GPS,47.092582,-122.644253,2022-07-25,2022-07-25 01:29:52 UTC,2021-10-25
63444,Town Nissan,555 3rd St SE,East Wenatchee,WA,98802,Public - Call ahead,Dealership business hours,200-9,47.400783,-120.279071,2022-02-10,2022-02-10 19:42:29 UTC,2010-12-17
63445,Town Nissan,555 3rd St SE,East Wenatchee,WA,98802,Private,Service center use only,200-9,47.400783,-120.279071,2022-02-10,2022-02-10 19:42:29 UTC,2010-12-17
150814,NPS OF WEN LLC STATION 1,400 highline,East Wenatchee,WA,98802,Public,24 hours daily,GPS,47.399162,-120.28131,2022-07-25,2022-07-25 01:06:37 UTC,2019-12-27
25140,Island Supply - Mead Biofuel,21 W Beach Rd,Eastsound,WA,98245,TEMPORARILY UNAVAILABLE (Public - Call ahead),"7:30am-5:30pm M-F, 8:30am-5:30pm Sat",200-9,48.677753,-122.939944,2022-06-14,2022-06-14 16:22:30 UTC,2004-04-21
93846,Odd Fellows Hall,112 Haven Rd,Eastsound,WA,98245,Public,24 hours daily,GPS,48.692979,-122.904798,2021-02-15,2022-06-30 22:11:13 UTC,2017-01-01
93847,Rosario Resort,410 Ocean Mist Way,Eastsound,WA,98245,Public - Call ahead,24 hours daily; guest use only,GPS,48.648792,-122.868418,2021-12-09,2022-02-10 19:42:29 UTC,2016-01-01
202346,The Arbors at Edgewood,10304 20th St. East,Edgewood,WA,98371,Public,24 hours daily,GPS,47.238487,-122.294677,2022-07-25,2022-07-25 01:33:33 UTC,2021-12-10
39782,Campbell-Nelson Nissan,24325 Highway 99,Edmonds,WA,98026,Public - Call ahead,Dealership business hours,GPS,47.778229,-122.344838,2020-07-13,2021-03-11 23:22:17 UTC,2011-03-15
44136,Campbell-Nelson Nissan,24325 Highway 99,Edmonds,WA,98026,Private,Private,GPS,47.778229,-122.344838,2020-07-13,2021-03-11 23:22:17 UTC,2011-03-15
144074,EDMONDSNISSAN CAMPBELL NORTH,"24325 Highway 99 Edmonds, WA. 98026",Edmonds,WA,98026,Public,24 hours daily,GPS,47.778256,-122.344832,2022-07-25,2022-07-25 01:04:13 UTC,2019-08-27
147692,Public Safety #3,205 5th Avenue North,Edmonds,WA,98020,Public,MO: Not Specified; TU: Not Specified; WE: Not Specified; TH: Not Specified; FR: Not Specified; SA: Not Specified; SU: Not Specified,GPS,47.8124532,-122.3758246,2022-07-25,2022-07-25 00:31:01 UTC,2019-07-23
147698,City Park #1,600 3rd Avenue South,Edmonds,WA,98020,Public,MO: Not Specified; TU: Not Specified; WE: Not Specified; TH: Not Specified; FR: Not Specified; SA: Not Specified; SU: Not Specified,GPS,47.8051107,-122.3813841,2022-07-25,2022-07-25 00:31:01 UTC,2019-07-23
187110,PCC NATURAL PCC EDMONDS,9803 Edmonds Way,Edmonds,WA,98020,Public,24 hours daily,GPS,47.791134,-122.36613,2022-07-25,2022-07-25 01:18:06 UTC,2021-04-07
194790,Main Street #5,Main & 6th Streets.,Edmonds,WA,98020,Public,MO: Not Specified; TU: Not Specified; WE: Not Specified; TH: Not Specified; FR: Not Specified; SA: Not Specified; SU: Not Specified,GPS,47.8105149,-122.3748742,2022-07-25,2022-07-25 00:31:01 UTC,2021-09-02
212013,Public Safety #4,205 5th Avenue North,Edmonds,WA,98020,Public,MO: Not Specified; TU: Not Specified; WE: Not Specified; TH: Not Specified; FR: Not Specified; SA: Not Specified; SU: Not Specified,GPS,47.8124532,-122.3758246,2022-07-25,2022-07-25 00:31:01 UTC,2022-03-19
212014,City Hall #2,121 5th Avenue North,Edmonds,WA,98020,Public,MO: Not Specified; TU: Not Specified; WE: Not Specified; TH: Not Specified; FR: Not Specified; SA: Not Specified; SU: Not Specified,GPS,47.8113372,-122.37709,2022-07-25,2022-07-25 00:31:01 UTC,2022-03-19
218436,EDMONDSNISSAN COMMERCIAL,24015 84th Ave W,Edmonds,WA,98026,Public,24 hours daily,GPS,47.781151,-122.345754,2022-07-25,2022-07-25 00:46:39 UTC,2022-05-19
220475,6th Ave #6,100 6th Avenue,Edmonds,WA,98020,Public,MO: Not Specified; TU: Not Specified; WE: Not Specified; TH: Not Specified; FR: Not Specified; SA: Not Specified; SU: Not Specified,GPS,47.8040624,-122.3735496,2022-07-25,2022-07-25 00:31:01 UTC,2022-06-03
99297,Ellensburg,269-299 N Main St,Ellensburg,WA,98926,Public,24 hours daily,200-8,46.994236,-120.549197,2022-07-25,2022-07-25 01:31:51 UTC,2018-06-14
102487,Holiday Inn Express - Tesla Supercharger,1620 Canyon Rd,Ellensburg,WA,98926,Public,24 hours daily; for Tesla use only,GPS,46.976918,-120.54162,2021-10-11,2021-11-04 18:37:47 UTC,2013-12-15
165762,Holiday Inn Express Ellensburg,1620 Canyon Rd,Ellensburg,WA,98926,Public,24 hours daily; customer use only,GPS,46.976691,-120.541869,2020-09-03,2022-07-18 04:43:28 UTC,2020-08-24
170358,Taco Bell Ellensburg,1406 Canyon Road,Ellensburg,WA,98926,Public,24 hours daily,GPS,46.978901,-120.543425,2022-07-25,2022-07-25 01:36:31 UTC,2020-12-18
204476,Ginkgo Petrified Forest - Trees of Stone Trailhead,Vantage Hwy,Ellensburg,WA,98926,Public,24 hours daily; Discover Pass required,200-6,46.949549,-120.037104,2022-01-10,2022-02-10 19:42:29 UTC,2021-10-27
217092,Best Western - Ellensburg - Tesla Supercharger,1500 Canyon Rd,Ellensburg,WA,98926,Public - Credit card at all times,24 hours daily,GPS,46.978013,-120.542423,2022-06-14,2022-06-14 16:24:51 UTC,2022-04-28
213078,Whitney's Value Ford,6 Schouweiler Tract Rd W,Elma,WA,98541,Public,MON: 24 hours | TUE: 24 hours | WED: 24 hours | THU: 24 hours | FRI: 24 hours | SAT: 24 hours | SUN: 24 hours,GPS,46.997349,-123.446815,2022-07-24,2022-07-24 22:55:19 UTC,2022-03-30
170526,Shell Gas Station/BJ's - Tesla Supercharger,14579 US-97 Alt,Entiat,WA,98822,Public,24 hours daily; for Tesla use only,GPS,47.684802,-120.206922,2021-10-11,2021-11-04 18:37:47 UTC,2020-12-21
203045,Safeway 152 Roosevelt Ave E,152 Roosevelt Ave E,Enumclaw,WA,98022,Public - Credit card at all times,6am-12am daily,GPS,47.19854548,-121.9797153,2022-05-05,2022-05-05 20:22:04 UTC,2021-12-21
223722,Crystal Mountain,33914 Crystal Mt. Blvd,Enumclaw,WA,98022,Public,24 hours daily,GPS,46.938306,-121.472889,2022-07-25,2022-07-25 01:48:14 UTC,2022-07-19
165763,Confluence Health | Ephrata Clinic,314 Basin St SW,Ephrata,WA,98823,Public,24 hours daily,GPS,47.31711,-119.553158,2020-09-03,2022-07-18 04:44:24 UTC,2020-08-24
20710,U-Haul,6443 Evergreen Way,Everett,WA,98203,Public,"7am-7pm M-Th and Sat, 7am-8pm F, 9am-5pm Sun",200-9,47.938948,-122.217746,2021-06-07,2022-02-22 14:31:10 UTC,2000-11-01
39783,Campbell Nissan - Everett,10500 Highway 99 S,Everett,WA,98204,Public - Call ahead,Dealership business hours,GPS,47.90272982,-122.2469884,2022-03-07,2022-03-07 19:49:53 UTC,2011-03-15
44137,Campbell Nissan - Everett,10500 Highway 99 S,Everett,WA,98204,Private,Private,GPS,47.90272982,-122.2469884,2022-03-07,2022-03-07 19:49:53 UTC,2011-03-15
62746,Alliance AutoGas - Everett SNS,9640 Evergreen Way,Everett,WA,98204,Public - Card key at all times,24 hour access with Alliance AutoGas card (self-service),200-9,47.910004,-122.240041,2022-03-07,2022-03-07 19:49:53 UTC,2014-07-31
74196,Performance Kia,229 SW Everett Mall Way,Everett,WA,98204,Public - Call ahead,Dealership business hours,GPS,47.906308,-122.237601,2021-12-09,2022-02-10 19:42:29 UTC,2016-01-01
75094,NISSAN-EVERETT DC STATION 1,10500 Hwy 99,Everett,WA,98204,Public,24 hours daily,GPS,47.902712,-122.246862,2022-07-25,2022-07-25 01:14:22 UTC,2016-04-16
86939,Naval Station Everett,2000 W Marine View Dr,Everett,WA,98207,Private - Government only,Private,200-8,47.988961,-122.213978,2022-07-12,2022-07-12 20:31:42 UTC,2017-08-01
122125,"Naval Facilities Engineering Command - Naval Station Everett - B2134-1,2,3,4,5,6",2000 W Marine View Dr,Everett,WA,98207,Private - Government only,Private,GPS,47.993164,-122.221138,2021-02-22,2021-03-11 23:22:17 UTC,2019-02-01
122126,"Naval Facilities Engineering Command - Naval Station Everett  B2003-1,2",2000 W Marine View Dr,Everett,WA,98207,Private - Government only,Private,GPS,47.992104,-122.214104,2021-02-22,2021-03-11 23:22:17 UTC,2019-02-01
143970,"Walmart 3053 - Everett, WA",1605 SE Everett Mall Way,Everett,WA,98208,Public,24 hours daily,GPS,47.913486,-122.213314,2022-07-25,2022-07-25 01:34:58 UTC,2019-08-22
153061,EVERETT YMCA EVERETT YMCA #3,4730 Colby Ave,Everett,WA,98203,Public,24 hours daily,GPS,47.954737,-122.208024,2022-07-25,2022-07-25 01:06:32 UTC,2020-01-25
165647,"Walmart 5195 - Everett, WA",11400 Hwy. 99,Everett,WA,98204,Public,24 hours daily,GPS,47.893501,-122.256001,2022-07-25,2022-07-25 01:35:01 UTC,2020-08-28
165841,Broadway Apartments - 1st Floor,3214 Broadway,Everett,WA,98201,Private,MON: 24 hours | TUE: 24 hours | WED: 24 hours | THU: 24 hours | FRI: 24 hours | SAT: 24 hours | SUN: 24 hours,GPS,47.9749,-122.2014,2022-07-24,2022-07-24 22:55:19 UTC,2020-09-03
166189,Broadway Apartments - 2nd Floor,3214 Broadway,Everett,WA,98201,Private,MON: 24 hours | TUE: 24 hours | WED: 24 hours | THU: 24 hours | FRI: 24 hours | SAT: 24 hours | SUN: 24 hours,GPS,47.9752,-122.2018,2022-07-24,2022-07-24 22:55:19 UTC,2020-09-04
168288,Safeway #503,11031 19th Ave SE,Everett,WA,98208,Public,6am-12am daily,GPS,47.89728,-122.205629,2022-05-05,2022-05-05 20:22:04 UTC,2020-11-02
169005,Paine Field Airport - Tesla Destination,3220 100th St SW,Everett,WA,98204,Public,24 hours daily; for customer use only; see front desk for access,200-9,47.908243,-122.276662,2020-11-03,2021-03-11 23:22:17 UTC,2020-11-03
171755,NISSAN-EVERETT DC STATION 2,10500 Evergreen Way,Everett,WA,98204,Public,24 hours daily,GPS,47.902753,-122.246867,2022-07-25,2022-07-25 01:14:22 UTC,2021-01-27
175031,EVERETT YMCA EVERETT YMCA #2,4730 Colby Ave,Everett,WA,98203,Public,24 hours daily,GPS,47.954665,-122.208368,2022-07-25,2022-07-25 01:06:31 UTC,2021-01-27
175032,EVERETT YMCA EVERETT YMCA #1,4730 Colby Ave,Everett,WA,98203,Public,24 hours daily,GPS,47.954679,-122.208344,2022-07-25,2022-07-25 01:06:31 UTC,2021-01-27
175033,EVERETT YMCA EVERETT YMCA #4,4730 Colby Ave,Everett,WA,98203,Public,24 hours daily,GPS,47.955032,-122.207117,2022-07-25,2022-07-25 01:06:31 UTC,2021-01-27
193130,HOPEWORKS STATION 1,3323 Broadway,Everett,WA,98201,Public,24 hours daily,GPS,47.97331,-122.201162,2022-07-25,2022-07-25 01:05:40 UTC,2021-07-24
193457,Everett Community College - Lot F,"2000 Tower St Lot F, Maintenance Bldg 105",Everett,WA,98201,Public,MON: 24 hours | TUE: 24 hours | WED: 24 hours | THU: 24 hours | FRI: 24 hours | SAT: 24 hours | SUN: 24 hours,GPS,48.0067833,-122.2027667,2022-07-24,2022-07-24 22:55:19 UTC,2021-08-03
195057,Hotel lndigo Everett,1028 13th Street,Everett,WA,98201,Public,MO: Not Specified; TU: Not Specified; WE: Not Specified; TH: Not Specified; FR: Not Specified; SA: Not Specified; SU: Not Specified,GPS,48.0000028,-122.2146431,2022-07-25,2022-07-25 00:31:01 UTC,2021-09-04
197638,Providence Regional Medical Center Everett,1717 13th Street,Everett,WA,98201,Public,MO: Not Specified; TU: Not Specified; WE: Not Specified; TH: Not Specified; FR: Not Specified; SA: Not Specified; SU: Not Specified,GPS,48.00101,-122.2061313,2022-07-25,2022-07-25 00:31:01 UTC,2021-10-13
212012,"Walgreens - Everett, WA #4730",13110 Bothell Everett Hwy,Everett,WA,98208,Public,MO: Not Specified; TU: Not Specified; WE: Not Specified; TH: Not Specified; FR: Not Specified; SA: Not Specified; SU: Not Specified,GPS,47.8789325,-122.2071316,2022-07-25,2022-07-25 00:31:01 UTC,2022-03-19
220474,"Walgreens - Everett, WA #5598",6807 Evergreen Way,Everett,WA,98203,Public,MO: Not Specified; TU: Not Specified; WE: Not Specified; TH: Not Specified; FR: Not Specified; SA: Not Specified; SU: Not Specified,GPS,47.935727,-122.218396,2022-07-25,2022-07-25 00:31:01 UTC,2022-06-03
224240,SNOPUD POWERED MUEVE3105 #2,2320 California St,Everett,WA,98201,Public,24 hours daily,GPS,47.980493,-122.197684,2022-07-25,2022-07-25 01:28:30 UTC,2022-07-22
224241,SNOPUD POWERED MUEVE3105 #1,2320 California St,Everett,WA,98201,Public,24 hours daily,GPS,47.980447,-122.197667,2022-07-25,2022-07-25 01:28:30 UTC,2022-07-22
41750,Fairchild Air Force Base,7 W Arnold Ave,Fairchild AFB,WA,99011,Private - Government only,Private,GPS,47.630788,-117.643483,2022-07-12,2022-07-12 20:31:42 UTC,2011-03-15
48486,Fairchild Air Force Base,7 W Arnold Ave,Fairchild AFB,WA,99011,Private - Government only,Private,GPS,47.630788,-117.643483,2022-07-12,2022-07-12 20:31:42 UTC,2012-08-01
201876,Valet Parking,6501 Railroad Avenue SE,Fall City,WA,98024,Public,MON: 24 hours | TUE: 24 hours | WED: 24 hours | THU: 24 hours | FRI: 24 hours | SAT: 24 hours | SUN: 24 hours,GPS,47.542153,-121.836634,2022-07-24,2022-07-24 22:55:19 UTC,2021-12-01
67599,U-Haul,35205 Enchanted Pkwy S,Federal Way,WA,98003,Public,"7am-7pm M-Th and Sat, 7am-8pm F, 9am-5pm Sun",200-9,47.285486,-122.314997,2021-06-07,2022-02-22 14:31:10 UTC,2015-06-01
71773,Best Western Plus - Evergreen Inn and Suites,32124 25th Ave S,Federal Way,WA,98003,Public,24 hours daily; for guest use only; see front desk for access,GPS,47.313989,-122.300707,2022-06-14,2022-06-14 16:24:51 UTC,2019-06-28
116089,Best Western Plus Evergreen Inn & Suites - Tesla Destination,32124 25th Ave S,Federal Way,WA,98003,Public,24 hours daily; for customer use only; see front desk for access,200-9,47.313655,-122.300511,2020-11-03,2021-03-11 23:22:17 UTC,2015-11-01
143504,CENTER PLAZA FEDERAL WAY 3,2016 S 320th St,Federal Way,WA,98003,Public,24 hours daily,GPS,47.316668,-122.306683,2022-07-25,2022-07-25 01:02:28 UTC,2019-08-15
151862,Walgreens #6901,28817 Military Rd,Federal Way,WA,98003,Public,8am-10pm daily,GPS,47.343242,-122.302305,2022-05-05,2022-05-05 20:22:04 UTC,2019-11-01
151863,Walgreens #7700,34008 Hoyt Rd SW,Federal Way,WA,98023,Public,8am-12am daily,GPS,47.297114,-122.381431,2022-05-05,2022-05-05 20:22:04 UTC,2019-11-01
174306,CENTER PLAZA FEDERAL WAY 2,2016 S 320th St,Federal Way,WA,98003,Public,24 hours daily,GPS,47.316551,-122.306898,2022-07-25,2022-07-25 01:01:58 UTC,2021-01-27
174307,CENTER PLAZA FEDERAL WAY 1,2016 S 320th St,Federal Way,WA,98003,Public,24 hours daily,GPS,47.316475,-122.306924,2022-07-25,2022-07-25 01:01:47 UTC,2021-01-27
185190,"Walmart 3794 - Federal Way, WA",34520 16TH AVE S,Federal Way,WA,98003,Public,24 hours daily,GPS,47.291494,-122.308894,2022-07-25,2022-07-25 01:35:27 UTC,2021-02-19
187166,Celebration Center - Tesla Supercharger,32015 Pacific Highway South,Federal Way,WA,98003,Public,24 hours daily; for Tesla use only,GPS,47.314888,-122.31487,2021-10-11,2021-11-04 18:37:47 UTC,2021-03-22
212578,The Commons at Federal Way,1928 S Commons,Federal Way,WA,98003,Public,6am-12am daily,GPS,47.313927,-122.312311,2022-04-06,2022-04-06 14:08:04 UTC,2022-03-25
223481,Riverstone Apartment Homes,27314 24th Ave S.,Federal Way,WA,98003,Public,MON: 24 hours | TUE: 24 hours | WED: 24 hours | THU: 24 hours | FRI: 24 hours | SAT: 24 hours | SUN: 24 hours,GPS,47.357329,-122.301971,2022-07-24,2022-07-24 22:55:19 UTC,2022-07-14
123158,Haven Design Workshop,5828 2nd Ave,Ferndale,WA,98248,Private,Private,GPS,48.8529235,-122.5895254,2020-04-08,2021-03-11 23:22:17 UTC,2019-04-01
61739,Clean Energy - Fife,3013 20th St E,Fife,WA,98424,Public - Credit card at all times,24 hours daily; call 866-809-4869 for Clean Energy card; Also accepts PFGift Card,200-9,47.239791,-122.388406,2021-09-10,2022-02-10 19:42:29 UTC,2016-10-20
76926,BMW NORTHWEST STATION 01,4011 20th St E,Fife,WA,98424,Public,24 hours daily,GPS,47.2398,-122.374201,2022-07-25,2022-07-25 00:41:05 UTC,2016-07-10
143215,DESTINATION DCFAST HOG,2302 Pacific Hwy E,Fife,WA,98424,Public,24 hours daily,GPS,47.24293,-122.39677,2022-07-25,2022-07-25 01:03:25 UTC,2019-08-15
116090,Quillayute River Resort - Tesla Destination,473 Mora Rd,Forks,WA,98331,Public,24 hours daily; see front desk for access,200-9,47.915109,-124.544883,2020-11-03,2021-03-11 23:22:17 UTC,2017-03-01
152454,Forks Community Hospital,390 Founders Way,Forks,WA,98331,Public,MO: Not Specified; TU: Not Specified; WE: Not Specified; TH: Not Specified; FR: Not Specified; SA: Not Specified; SU: Not Specified,GPS,47.94656729,-124.3944043,2022-07-25,2022-07-25 00:31:01 UTC,2020-01-16
155169,Dew Drop Inn - Tesla Supercharger,100 Fern Hill Road,Forks,WA,98331,Public,24 hours daily; for Tesla use only,GPS,47.942921,-124.385236,2021-10-11,2021-11-04 18:37:47 UTC,2020-04-03
195135,Kalaloch Lodge,157151 Hwy 101,Forks,WA,98331,Public,MO: Not Specified; TU: Not Specified; WE: Not Specified; TH: Not Specified; FR: Not Specified; SA: Not Specified; SU: Not Specified,GPS,47.6055171,-124.3715566,2022-07-25,2022-07-25 00:31:01 UTC,2021-09-05
196041,Quillayute River Resort,473 Mora Rd,Forks,WA,98331,Public - Credit card at all times,24 hours daily,GPS,47.91480595,-124.5444948,2021-10-12,2022-02-10 19:42:29 UTC,2021-09-11
197726,Hoh Valley Cabins,5843 Upper Hoh Rd,Forks,WA,98331,Public - Credit card at all times,24 hours daily,GPS,47.81768529,-124.1518516,2021-11-04,2022-02-10 19:42:29 UTC,2021-10-08
26830,Fort Lewis,McKinley Ave & Garfield St,Fort Lewis,WA,98433,Private - Government only,"Also accepts VIL key, Military CAT",GPS,47.10579,-122.539,2022-07-12,2022-07-12 20:31:42 UTC,2015-07-15
62706,Fort Lewis,McKinley Ave & Garfield St,Fort Lewis,WA,98433,Private - Government only,"Also accepts VIL key, Military CAT",GPS,47.10579,-122.539,2022-07-12,2022-07-12 20:31:42 UTC,2014-06-30
62707,Fort Lewis,McKinley Ave & Garfield St,Fort Lewis,WA,98433,Private,"Also accepts VIL key, Military CAT",GPS,47.10579,-122.539,2022-07-12,2022-07-12 20:31:42 UTC,2014-06-30
102639,Fort Lewis,McKinley Ave & Garfield St,Fort Lewis,WA,98433,Private,Private,GPS,47.10579,-122.539,2022-07-12,2022-07-12 20:31:42 UTC,2018-09-01
116091,Island Athletic Club - Tesla Destination,5511 S Freeland Ave,Freeland,WA,98249,Public,24 hours daily,200-9,48.010776,-122.533294,2020-11-03,2021-03-11 23:22:17 UTC,2016-12-15
93840,San Juan Islands Conservation District,530 Guard St,Friday Harbor,WA,98250,Public,24 hours daily,GPS,48.536489,-123.021351,2022-01-10,2022-02-10 19:42:29 UTC,2015-01-01
93841,Avalon Business Park,322 Daniel Ln,Friday Harbor,WA,98250,Public,8am-5pm daily,GPS,48.514655,-123.028884,2021-02-15,2022-06-30 22:21:10 UTC,2017-01-01
93842,Earthbox Inn and Spa,410 Spring St,Friday Harbor,WA,98250,Public - Call ahead,24 hours daily; free for guests,GPS,48.532963,-123.019311,2021-11-04,2022-04-28 20:01:31 UTC,2016-01-01
93843,Friday Harbor Grand Bed and Breakfast,345 Blair Ave,Friday Harbor,WA,98250,Public - Call ahead,24 hours daily,GPS,48.532844,-123.021001,2021-02-15,2021-03-11 23:22:17 UTC,2017-01-01
93844,Sweet Earth Farm,16 Sweet Earth Ln,Friday Harbor,WA,98250,Public - Call ahead,8am-5pm daily,GPS,48.561173,-123.164341,2021-02-15,2022-06-30 22:22:04 UTC,2017-01-01
170581,Snug Harbor Resort,1997 Mitchell Bay Rd,Friday Harbor,WA,98250,Public,24 hours daily; guest use only; see front desk for access,GPS,48.569915,-123.168265,2021-01-14,2022-04-28 20:01:31 UTC,2020-12-21
170582,Friday Harbor Airport,800 Franklin Rd,Friday Harbor,WA,98250,Public,24 hours daily,GPS,48.524715,-123.026405,2021-01-14,2021-08-04 00:01:52 UTC,2020-12-21
88546,PUBLIC WORKS 1 MARITIME PIER,3025 Harborview Dr,Gig Harbor,WA,98335,Public,24 hours daily,GPS,47.329291,-122.578979,2022-07-25,2022-07-25 00:50:57 UTC,2017-11-21
88827,PUBLIC WORKS 1 GH FINHOLM 1,8828-8844 N Harborview Dr,Gig Harbor,WA,98332,Public,24 hours daily,GPS,47.339342,-122.590314,2022-07-25,2022-07-25 00:50:58 UTC,2017-12-14
116092,Ocean5 - Tesla Destination,5268 Point Fosdick Dr NW,Gig Harbor,WA,98335,Public,24 hours daily; for customer use only,GPS,47.306053,-122.581125,2020-11-03,2021-03-11 23:22:17 UTC,2018-11-01
116093,Best Western Wesley Inn - Tesla Destination,6575 Kimball Dr,Gig Harbor,WA,98335,Public,24 hours daily; for customer use only; see front desk for access,200-9,47.318297,-122.585569,2020-11-03,2021-03-11 23:22:17 UTC,2015-10-01
158634,Best Western - Wesley Inn & Suites,6575 Kimball Dr,Gig Harbor,WA,98335,Public,24 hours daily; for guest use only; see front desk for access,GPS,47.318046,-122.584772,2020-07-13,2022-07-18 04:17:32 UTC,2020-06-05
201423,"Kroger Fred Meyer 691 (Gig Harbor, WA)",5502 Point Fosdick Drive NW,Gig Harbor,WA,98335,Public,24 hours daily,GPS,47.306695,-122.580172,2022-07-25,2022-07-25 01:36:30 UTC,2021-11-19
220314,KCPW STATION 1,115 W Court St,Goldendale,WA,98620,Public,24 hours daily,GPS,45.821511,-120.823346,2022-07-25,2022-07-25 01:22:47 UTC,2022-05-28
220419,KCPW STATION 2,115 W Court St,Goldendale,WA,98620,Public,24 hours daily,GPS,45.821535,-120.822781,2022-07-25,2022-07-25 01:22:45 UTC,2022-06-02
91917,Handford Commercial Fueling,315 E Wine Country Rd,Grandview,WA,98930,Private - Government only,Private,200-9,46.256348,-119.897949,2019-07-09,2021-03-04 18:40:37 UTC,2018-01-15
194995,Shoalwater Bay Casino,4112 State Route 105,Grayland,WA,98590,Public,MO: Not Specified; TU: Not Specified; WE: Not Specified; TH: Not Specified; FR: Not Specified; SA: Not Specified; SU: Not Specified,GPS,46.7250165,-124.0206708,2022-07-25,2022-07-25 00:31:01 UTC,2021-09-03
38082,KING COUNTY DOT ISSAQUAH P&R 2,1755 Highlands Dr NE,Issaquah,WA,98027,Public,24 hours daily,GPS,47.545324,-122.0195,2022-07-25,2022-07-25 01:13:07 UTC,2008-02-15
51904,Evergreen Ford,1500 18th Ave NW,Issaquah,WA,98027,Private,Service center use only,GPS,47.547047,-122.063633,2021-11-04,2022-02-10 19:42:29 UTC,2012-10-01
65414,Snoqualmie Casino,37500 SE N Bend,Issaquah,WA,98065,Public,24 hours daily,200-9,47.519113,-121.841787,2021-12-09,2022-02-10 19:42:29 UTC,2015-01-01
79902,RSS-1 RSS #1,485 Rainier Blvd N,Issaquah,WA,98027,Public,24 hours daily,GPS,47.534915,-122.037552,2022-07-25,2022-07-25 00:50:12 UTC,2016-11-19
94884,Costco,999 Lake Dr,Issaquah,WA,98027,Public,24 hours daily,200-8,47.54894,-122.04991,2020-04-08,2021-03-11 23:22:17 UTC,2018-03-01
100055,ESSEX HIGHLANDS,1460 NE Hawthorne Street,Issaquah,WA,98029,Public,24 hours daily,GPS,47.545075,-122.008911,2022-07-25,2022-07-25 00:49:38 UTC,2018-08-02
104446,Fred Meyer - Tesla Supercharger,6100 East Lake Sammamish Parkway SE,Issaquah,WA,98029,Public,24 hours daily; for Tesla use only,GPS,47.548081,-122.039955,2021-10-11,2021-11-04 18:37:47 UTC,2018-10-01
104574,ISD411 ADMIN CENTER 1,5150 220th Ave SE,Issaquah,WA,98029,Public,24 hours daily,GPS,47.55493,-122.047455,2022-07-25,2022-07-25 00:58:43 UTC,2018-11-08
116094,Holiday Inn Seattle-Issaquah - Tesla Destination,1801 12th Ave NW,Issaquah,WA,98027,Public,24 hours daily; for customer use only; see front desk for access,200-9,47.55146,-122.057884,2020-11-03,2021-03-11 23:22:17 UTC,2018-11-01
117285,Issaquah Medical Building,1301 4th Ave NW,Issaquah,WA,98027,Private,Private,200-9,47.544345,-122.041774,2021-12-09,2022-07-18 04:13:14 UTC,2018-09-13
145263,Grand Ridge Plaza,1451 Highlands Dr NE,Issaquah,WA,98029,Public,6am-12am daily,GPS,47.543753,-122.017313,2022-05-05,2022-05-05 20:22:04 UTC,2019-09-01
147227,"Target T0996 - Issaquah, WA",755 NW Gillman Blvd.,Issaquah,WA,98027,Public,24 hours daily,GPS,47.541874,-122.052032,2022-07-25,2022-07-25 01:35:39 UTC,2019-10-25
147715,Discovery West Apartments,"580 8th Ave., NE",Issaquah,WA,98029,Public,MO: 12:00am-12:00am; TU: 12:00am-12:00am; WE: 12:00am-12:00am; TH: 12:00am-12:00am; FR: 12:00am-12:00am; SA: 12:00am-12:00am; SU: 12:00am-12:00am,GPS,47.5365604,-122.0205442,2022-07-25,2022-07-25 00:31:01 UTC,2016-03-05
147717,Swedish Medical Center Issaquah Campus,751 N.E. Blakely Drive,Issaquah,WA,98027,Public,MO: 12:00am-12:00am; TU: 12:00am-12:00am; WE: 12:00am-12:00am; TH: 12:00am-12:00am; FR: 12:00am-12:00am; SA: 12:00am-12:00am; SU: 12:00am-12:00am,GPS,47.536237,-122.0220539,2022-07-25,2022-07-25 00:31:01 UTC,2014-01-25
166205,KING COUNTY DOT ISSAQUAH P&R 6,1755 Highlands Dr NE,Issaquah,WA,98029,Public,24 hours daily,GPS,47.545719,-122.015713,2022-07-25,2022-07-25 01:13:23 UTC,2020-09-04
166206,KING COUNTY DOT ISSAQUAH P&R 5,1755 Highlands Dr NE,Issaquah,WA,98029,Public,24 hours daily,GPS,47.545785,-122.018499,2022-07-25,2022-07-25 01:13:23 UTC,2020-09-04
170401,RPI PORTEMONS 2005 POPLAR 2,2005 NW Poplar Way,Issaquah,WA,98027,Public,24 hours daily,GPS,47.550487,-122.068649,2022-07-25,2022-07-25 01:14:20 UTC,2020-12-19
172426,KING COUNTY DOT ISSAQUAH P&R 1,1755 Highlands Dr NE,Issaquah,WA,98027,Public,24 hours daily,GPS,47.545335,-122.019501,2022-07-25,2022-07-25 01:13:07 UTC,2021-01-27
173539,ISD411 ADMIN CENTER 2,5150 220th Ave SE,Issaquah,WA,98029,Public,24 hours daily,GPS,47.554889,-122.047456,2022-07-25,2022-07-25 00:58:43 UTC,2021-01-27
181202,KING COUNTY DOT ISSAQUAH P&R 7,1755 Highlands Dr NE,Issaquah,WA,98029,Public,24 hours daily,GPS,47.545783,-122.018483,2022-07-25,2022-07-25 01:13:23 UTC,2021-01-27
181203,KING COUNTY DOT ISSAQUAH P&R 4,1755 Highlands Dr NE,Issaquah,WA,98029,Public,24 hours daily,GPS,47.54578,-122.018474,2022-07-25,2022-07-25 01:13:23 UTC,2021-01-27
181204,KING COUNTY DOT ISSAQUAH P&R 3,1755 Highlands Dr NE,Issaquah,WA,98029,Public,24 hours daily,GPS,47.545787,-122.018479,2022-07-25,2022-07-25 01:13:23 UTC,2021-01-27
182004,RPI PORTEMONS 2005 POPLAR 1,2005 NW Poplar Way,Issaquah,WA,98027,Public,24 hours daily,GPS,47.55054,-122.068955,2022-07-25,2022-07-25 01:14:20 UTC,2021-01-27
182005,RPI PORTEMONS 2005 POPLAR 3,2005 NW Poplar Way,Issaquah,WA,98027,Public,24 hours daily,GPS,47.550508,-122.068641,2022-07-25,2022-07-25 01:14:20 UTC,2021-01-27
192654,Timber Ridge At Talus,100 Timber Ridge Way NW,Issaquah,WA,98027,Private,MON: 24 hours | TUE: 24 hours | WED: 24 hours | THU: 24 hours | FRI: 24 hours | SAT: 24 hours | SUN: 24 hours,GPS,47.53129,-122.06573,2022-07-24,2022-07-24 22:55:19 UTC,2021-07-08
204538,HOMEWOOD SUITES HOMEWOOD #1,1484 Hyla Ave NW,Issaquah,WA,98027,Public,24 hours daily,GPS,47.547088,-122.065336,2022-07-25,2022-07-25 00:45:16 UTC,2022-01-10
196042,EZstop Kalama Waterfront,215 N Hendrickson Dr,Kalama,WA,98625,Public - Credit card at all times,24 hours daily,GPS,46.00398293,-122.8453115,2021-10-12,2022-02-10 19:42:29 UTC,2021-09-11
124684,Three Rivers Mall,351 Three Rivers Dr.,Kelso,WA,98626,Public,24 hours daily,GPS,46.139875,-122.901263,2022-07-25,2022-07-25 01:35:34 UTC,2019-06-25
158651,Panera Bread - Tesla Supercharger,207 Three Rivers Drive,Kelso,WA,98626,Public,24 hours daily; for Tesla use only,GPS,46.143261,-122.898533,2021-10-11,2021-11-04 18:37:47 UTC,2020-06-11
20695,U-Haul,6720 NE Bothell Way,Kenmore,WA,98028,Public,"7am-7pm M-Th and Sat, 7am-8pm F, 9am-5pm Sun",200-9,47.7588,-122.250962,2021-06-07,2022-02-22 14:31:10 UTC,2000-11-01
185626,Safeway #3500,6850 NE Bothell Way,Kenmore,WA,98028,Public,6am-12am daily,GPS,47.75886,-122.247821,2022-05-05,2022-05-05 20:22:04 UTC,2021-03-01
